{
  "city": "西安",
  "default_city": "",
  "all_pois": [
    {
      "name": "清真学习巷串串",
      "lat": 34.261611,
      "lng": 108.936217,
      "category": "其他",
      "rating": 4.8,
      "price_per_person": 41.0,
      "address": "大学习巷68号,70号"
    },
    {
      "name": "奥斯卡国际影城(骡马市店)",
      "lat": 34.258698,
      "lng": 108.951643,
      "category": "休闲",
      "rating": 4.7,
      "price_per_person": 44.0,
      "address": "东大街骡马市1号星悦MALL6层A-3A-4A-6号"
    },
    {
      "name": "夏奇拉小酒馆",
      "lat": 34.258309,
      "lng": 108.952094,
      "category": "餐饮服务;中餐厅;中餐厅",
      "rating": 4.6,
      "price_per_person": 85.0,
      "address": "太和广场2楼(钟楼地铁站G1口步行120米)"
    },
    {
      "name": "胡弄寿司(太和广场南楼店)",
      "lat": 34.25769,
      "lng": 108.952414,
      "category": "餐饮服务;外国餐厅;日本料理",
      "rating": 4.6,
      "price_per_person": 97.0,
      "address": "中柳巷27号(钟楼地铁站G1口步行230米)"
    },
    {
      "name": "明泉匯足道",
      "lat": 34.250035,
      "lng": 108.950447,
      "category": "生活服务;洗浴推拿场所;洗浴推拿场所",
      "rating": 4.7,
      "price_per_person": 215.0,
      "address": "环城南路东段334号陕西会客厅隔壁"
    }
  ],
  "stop_names": [
    "清真学习巷串串",
    "奥斯卡国际影城(骡马市店)",
    "夏奇拉小酒馆",
    "胡弄寿司(太和广场南楼店)",
    "明泉匯足道"
  ],
  "start_name": "钟楼",
  "dest_name": "大雁塔",
  "distance_info": "约33分钟 / 5996米",
  "path_result": {
    "segments": [
      {
        "from": "钟楼",
        "to": "清真学习巷串串",
        "transport": "骑行",
        "distance": 1503,
        "duration": 360
      },
      {
        "from": "清真学习巷串串",
        "to": "奥斯卡国际影城(骡马市店)",
        "transport": "骑行",
        "distance": 2497,
        "duration": 600
      },
      {
        "from": "奥斯卡国际影城(骡马市店)",
        "to": "夏奇拉小酒馆",
        "transport": "步行",
        "distance": 40,
        "duration": 60
      },
      {
        "from": "夏奇拉小酒馆",
        "to": "胡弄寿司(太和广场南楼店)",
        "transport": "步行",
        "distance": 103,
        "duration": 60
      },
      {
        "from": "胡弄寿司(太和广场南楼店)",
        "to": "明泉匯足道",
        "transport": "骑行",
        "distance": 1353,
        "duration": 300
      },
      {
        "from": "明泉匯足道",
        "to": "大雁塔",
        "transport": "步行",
        "distance": 500,
        "duration": 600
      }
    ],
    "total_duration_min": 33,
    "total_distance": 5996
  },
  "nodes": [],
  "messages": [],
  "origin_coords": [
    34.259968,
    108.94774
  ],
  "dest_coords": [
    34.218229,
    108.964176
  ],
  "num_stops": 5,
  "keywords": [
    "景点",
    "亲子",
    "儿童"
  ],
  "last_user_input": "西安亲子出游半日",
  "review_score": 4.0,
  "budget": "medium",
  "constraints": {
    "budget": null,
    "dietary": [],
    "exclusions": [],
    "must_include": [],
    "max_duration_min": null,
    "preferred_categories": [
      "景点"
    ],
    "vibe": null
  },
  "violations": [],
  "last_clusters_hint": [],
  "corridor_pois": [
    {
      "id": "187_2458",
      "name": "西安荟聚",
      "lat": 34.172518,
      "lng": 108.901422,
      "category": "购物",
      "rating": 4.9,
      "price_per_person": null,
      "address": "西部大道与子午大道交汇处西北角",
      "cluster_id": 187,
      "projection_ratio": 1.0,
      "perpendicular_km": 7.69,
      "recommendation_reasons": {
        "structured": "评分4.9 | 购物 | 距起点10.6km",
        "user_need": "该区域评分最高的选择之一；位于路线后半段"
      },
      "selected": false
    },
    {
      "id": "291_4331",
      "name": "西安大悦城",
      "lat": 34.216544,
      "lng": 108.962048,
      "category": "购物",
      "rating": 4.8,
      "price_per_person": null,
      "address": "曲江新区慈恩西路69号负一层B1-22号商铺",
      "cluster_id": 291,
      "projection_ratio": 1.0,
      "perpendicular_km": 0.27,
      "recommendation_reasons": {
        "structured": "评分4.8 | 购物 | 距起点5.0km",
        "user_need": "该区域评分最高的选择之一；位于路线后半段"
      },
      "selected": false
    },
    {
      "id": "406_6275",
      "name": "兴庆宫公园",
      "lat": 34.253821,
      "lng": 108.983538,
      "category": "景点",
      "rating": 4.8,
      "price_per_person": null,
      "address": "咸宁西路55号",
      "cluster_id": 406,
      "projection_ratio": 0.42,
      "perpendicular_km": 2.94,
      "recommendation_reasons": {
        "structured": "评分4.8 | 景点 | 距起点3.4km",
        "user_need": "完美匹配您的「景点打卡」需求；完美匹配您的「亲子友好」需求；该区域评分最高的选择之一"
      },
      "selected": false
    },
    {
      "id": "433_5800",
      "name": "清真学习巷串串",
      "lat": 34.261611,
      "lng": 108.936217,
      "category": "其他",
      "rating": 4.8,
      "price_per_person": 41.0,
      "address": "大学习巷68号,70号",
      "cluster_id": 433,
      "projection_ratio": 0.0,
      "perpendicular_km": 1.07,
      "recommendation_reasons": {
        "structured": "评分4.8 | 人均41元 | 其他 | 距起点1.1km",
        "user_need": "该区域评分最高的选择之一；在您的中等预算范围内；距起点很近"
      },
      "selected": false
    },
    {
      "id": "208_2388",
      "name": "袁山山重庆火锅(富乐广场店)",
      "lat": 34.184795,
      "lng": 108.894302,
      "category": "餐饮",
      "rating": 4.7,
      "price_per_person": 84.0,
      "address": "西沣一路2000号",
      "cluster_id": 208,
      "projection_ratio": 1.0,
      "perpendicular_km": 7.42,
      "recommendation_reasons": {
        "structured": "评分4.7 | 人均84元 | 餐饮 | 距起点9.7km",
        "user_need": "该区域评分最高的选择之一；在您的中等预算范围内；位于路线后半段"
      },
      "selected": false
    },
    {
      "id": "208_2501",
      "name": "雁南公园",
      "lat": 34.182173,
      "lng": 108.899795,
      "category": "景点",
      "rating": 4.7,
      "price_per_person": null,
      "address": "子午大道15号",
      "cluster_id": 208,
      "projection_ratio": 1.0,
      "perpendicular_km": 7.15,
      "recommendation_reasons": {
        "structured": "评分4.7 | 景点 | 距起点9.7km",
        "user_need": "完美匹配您的「景点打卡」需求；完美匹配您的「亲子友好」需求；该区域评分最高的选择之一"
      },
      "selected": false
    },
    {
      "id": "291_4095",
      "name": "巧克巧蔻·巧克力博物馆(西安大唐不夜城馆)",
      "lat": 34.213053,
      "lng": 108.963764,
      "category": "文化",
      "rating": 4.7,
      "price_per_person": null,
      "address": "曲江新区雁塔南路458号大唐不夜城潮空间A06室",
      "cluster_id": 291,
      "projection_ratio": 1.0,
      "perpendicular_km": 0.58,
      "recommendation_reasons": {
        "structured": "评分4.7 | 文化 | 距起点5.4km",
        "user_need": "完美匹配您的「景点打卡」需求；完美匹配您的「亲子友好」需求；该区域评分最高的选择之一"
      },
      "selected": false
    },
    {
      "id": "291_4123",
      "name": "大慈恩寺",
      "lat": 34.217954,
      "lng": 108.96418,
      "category": "景点",
      "rating": 4.7,
      "price_per_person": null,
      "address": "慈恩路1号",
      "cluster_id": 291,
      "projection_ratio": 1.0,
      "perpendicular_km": 0.03,
      "recommendation_reasons": {
        "structured": "评分4.7 | 景点 | 距起点4.9km",
        "user_need": "完美匹配您的「景点打卡」需求；该区域评分最高的选择之一；位于路线后半段"
      },
      "selected": false
    },
    {
      "id": "291_4205",
      "name": "西安美术馆",
      "lat": 34.211024,
      "lng": 108.963371,
      "category": "文化",
      "rating": 4.7,
      "price_per_person": null,
      "address": "雁南一路与雁塔南路交叉口西南角",
      "cluster_id": 291,
      "projection_ratio": 1.0,
      "perpendicular_km": 0.8,
      "recommendation_reasons": {
        "structured": "评分4.7 | 文化 | 距起点5.6km",
        "user_need": "该区域评分最高的选择之一；位于路线后半段"
      },
      "selected": false
    },
    {
      "id": "291_4408",
      "name": "唐大慈恩寺遗址公园",
      "lat": 34.217678,
      "lng": 108.966388,
      "category": "景点",
      "rating": 4.7,
      "price_per_person": null,
      "address": "太平堡新1排1号",
      "cluster_id": 291,
      "projection_ratio": 1.0,
      "perpendicular_km": 0.21,
      "recommendation_reasons": {
        "structured": "评分4.7 | 景点 | 距起点5.0km",
        "user_need": "完美匹配您的「景点打卡」需求；完美匹配您的「亲子友好」需求；该区域评分最高的选择之一"
      },
      "selected": false
    },
    {
      "id": "291_4466",
      "name": "博纳国际影城(西安大悦城)",
      "lat": 34.216958,
      "lng": 108.96146,
      "category": "休闲",
      "rating": 4.7,
      "price_per_person": 36.0,
      "address": "慈恩西路67号西安大悦城3F层L3-40",
      "cluster_id": 291,
      "projection_ratio": 1.0,
      "perpendicular_km": 0.29,
      "recommendation_reasons": {
        "structured": "评分4.7 | 人均36元 | 休闲 | 距起点4.9km",
        "user_need": "该区域评分最高的选择之一；在您的中等预算范围内；位于路线后半段"
      },
      "selected": false
    },
    {
      "id": "403_5962",
      "name": "西安碑林博物馆",
      "lat": 34.254497,
      "lng": 108.95286,
      "category": "景点",
      "rating": 4.7,
      "price_per_person": null,
      "address": "三学街15号",
      "cluster_id": 403,
      "projection_ratio": 0.155,
      "perpendicular_km": 0.26,
      "recommendation_reasons": {
        "structured": "评分4.7 | 景点 | 距起点0.8km",
        "user_need": "完美匹配您的「景点打卡」需求；完美匹配您的「亲子友好」需求；该区域评分最高的选择之一"
      },
      "selected": false
    },
    {
      "id": "403_5978",
      "name": "卧龙禅寺",
      "lat": 34.254706,
      "lng": 108.95482,
      "category": "景点",
      "rating": 4.7,
      "price_per_person": null,
      "address": "柏树林街道开通西巷5号",
      "cluster_id": 403,
      "projection_ratio": 0.167,
      "perpendicular_km": 0.44,
      "recommendation_reasons": {
        "structured": "评分4.7 | 景点 | 距起点0.9km",
        "user_need": "完美匹配您的「景点打卡」需求；该区域评分最高的选择之一；距起点很近"
      },
      "selected": false
    },
    {
      "id": "403_6027",
      "name": "奥斯卡国际影城(骡马市店)",
      "lat": 34.258698,
      "lng": 108.951643,
      "category": "休闲",
      "rating": 4.7,
      "price_per_person": 44.0,
      "address": "东大街骡马市1号星悦MALL6层A-3A-4A-6号",
      "cluster_id": 403,
      "projection_ratio": 0.058,
      "perpendicular_km": 0.3,
      "recommendation_reasons": {
        "structured": "评分4.7 | 人均44元 | 休闲 | 距起点0.4km",
        "user_need": "该区域评分最高的选择之一；在您的中等预算范围内；距起点步行可达"
      },
      "selected": false
    },
    {
      "id": "403_14335",
      "name": "明泉匯足道",
      "lat": 34.250035,
      "lng": 108.950447,
      "category": "生活服务;洗浴推拿场所;洗浴推拿场所",
      "rating": 4.7,
      "price_per_person": 215.0,
      "address": "环城南路东段334号陕西会客厅隔壁",
      "cluster_id": 403,
      "projection_ratio": 0.228,
      "perpendicular_km": 0.11,
      "recommendation_reasons": {
        "structured": "评分4.7 | 人均215元 | 洗浴推拿场所 | 距起点1.1km",
        "user_need": "该区域评分最高的选择之一；距起点很近"
      },
      "selected": false
    },
    {
      "id": "403_14486",
      "name": "金龙咖喱(西安市油脂公司第三住宅楼店)",
      "lat": 34.257552,
      "lng": 108.952087,
      "category": "餐饮服务;外国餐厅;日本料理",
      "rating": 4.7,
      "price_per_person": 42.0,
      "address": "油脂公司第三住宅楼西门东北50米",
      "cluster_id": 403,
      "projection_ratio": 0.086,
      "perpendicular_km": 0.3,
      "recommendation_reasons": {
        "structured": "评分4.7 | 人均42元 | 日本料理 | 距起点0.5km",
        "user_need": "该区域评分最高的选择之一；在您的中等预算范围内；距起点步行可达"
      },
      "selected": false
    },
    {
      "id": "403_14854",
      "name": "么哈MOJAR(星地标店)",
      "lat": 34.257846,
      "lng": 108.950964,
      "category": "购物服务;服装鞋帽皮具店;服装鞋帽皮具店",
      "rating": 4.7,
      "price_per_person": 86.0,
      "address": "东大街骡马市1号房号1F-C-02",
      "cluster_id": 403,
      "projection_ratio": 0.07,
      "perpendicular_km": 0.21,
      "recommendation_reasons": {
        "structured": "评分4.7 | 人均86元 | 服装鞋帽皮具店 | 距起点0.4km",
        "user_need": "该区域评分最高的选择之一；在您的中等预算范围内；距起点步行可达"
      },
      "selected": false
    },
    {
      "id": "433_5914",
      "name": "都城隍庙",
      "lat": 34.261045,
      "lng": 108.937359,
      "category": "景点",
      "rating": 4.7,
      "price_per_person": null,
      "address": "西大街129号",
      "cluster_id": 433,
      "projection_ratio": 0.0,
      "perpendicular_km": 0.96,
      "recommendation_reasons": {
        "structured": "评分4.7 | 景点 | 距起点1.0km",
        "user_need": "完美匹配您的「景点打卡」需求；该区域评分最高的选择之一；距起点很近"
      },
      "selected": false
    },
    {
      "id": "433_5929",
      "name": "西仓市集文创公园",
      "lat": 34.265579,
      "lng": 108.934458,
      "category": "其他",
      "rating": 4.7,
      "price_per_person": null,
      "address": "西仓南巷146号",
      "cluster_id": 433,
      "projection_ratio": 0.0,
      "perpendicular_km": 1.37,
      "recommendation_reasons": {
        "structured": "评分4.7 | 其他 | 距起点1.4km",
        "user_need": "完美匹配您的「景点打卡」需求；完美匹配您的「亲子友好」需求；该区域评分最高的选择之一"
      },
      "selected": false
    },
    {
      "id": "514_7690",
      "name": "和生国际",
      "lat": 34.294079,
      "lng": 108.898611,
      "category": "购物",
      "rating": 4.7,
      "price_per_person": null,
      "address": "北二环梨园路和生国际11号客梯二楼",
      "cluster_id": 514,
      "projection_ratio": 0.0,
      "perpendicular_km": 5.9,
      "recommendation_reasons": {
        "structured": "评分4.7 | 购物 | 距起点5.9km",
        "user_need": "该区域评分最高的选择之一；位于路线后半段"
      },
      "selected": false
    },
    {
      "id": "553_7979",
      "name": "西安奥斯卡国际影城(荣民时代广场店)",
      "lat": 34.306167,
      "lng": 108.947671,
      "category": "休闲",
      "rating": 4.7,
      "price_per_person": 33.0,
      "address": "未央路105号荣民时代广场4层",
      "cluster_id": 553,
      "projection_ratio": 0.0,
      "perpendicular_km": 5.14,
      "recommendation_reasons": {
        "structured": "评分4.7 | 人均33元 | 休闲 | 距起点5.1km",
        "user_need": "该区域评分最高的选择之一；在您的中等预算范围内；位于路线后半段"
      },
      "selected": false
    },
    {
      "id": "187_2390",
      "name": "晓宇重庆火锅(西安荟聚店)",
      "lat": 34.173125,
      "lng": 108.902125,
      "category": "餐饮",
      "rating": 4.6,
      "price_per_person": 91.0,
      "address": "子午大道6号西安荟聚中心L2层02D011",
      "cluster_id": 187,
      "projection_ratio": 1.0,
      "perpendicular_km": 7.6,
      "recommendation_reasons": {
        "structured": "评分4.6 | 人均91元 | 餐饮 | 距起点10.5km",
        "user_need": "该区域评分最高的选择之一；在您的中等预算范围内；位于路线后半段"
      },
      "selected": false
    },
    {
      "id": "187_2397",
      "name": "巴奴毛肚火锅(西安荟聚店)",
      "lat": 34.1726,
      "lng": 108.901364,
      "category": "餐饮",
      "rating": 4.6,
      "price_per_person": 114.0,
      "address": "西部大道与子午大道交汇处西北角西安荟聚3层03D031号夜市通道由4号门6号电梯至3层",
      "cluster_id": 187,
      "projection_ratio": 1.0,
      "perpendicular_km": 7.69,
      "recommendation_reasons": {
        "structured": "评分4.6 | 人均114元 | 餐饮 | 距起点10.6km",
        "user_need": "该区域评分最高的选择之一；在您的中等预算范围内；位于路线后半段"
      },
      "selected": false
    },
    {
      "id": "187_2412",
      "name": "星巴克(西安荟聚臻选店)",
      "lat": 34.173125,
      "lng": 108.903125,
      "category": "餐饮",
      "rating": 4.6,
      "price_per_person": 30.0,
      "address": "西安荟聚中心内LG1层LG1C015号",
      "cluster_id": 187,
      "projection_ratio": 1.0,
      "perpendicular_km": 7.53,
      "recommendation_reasons": {
        "structured": "评分4.6 | 人均30元 | 餐饮 | 距起点10.5km",
        "user_need": "该区域评分最高的选择之一；在您的中等预算范围内；位于路线后半段"
      },
      "selected": false
    },
    {
      "id": "187_2413",
      "name": "瑞幸咖啡(西安荟聚店)",
      "lat": 34.172484,
      "lng": 108.90142,
      "category": "餐饮",
      "rating": 4.6,
      "price_per_person": 11.0,
      "address": "西部大道20号宜家荟聚负一楼",
      "cluster_id": 187,
      "projection_ratio": 1.0,
      "perpendicular_km": 7.69,
      "recommendation_reasons": {
        "structured": "评分4.6 | 人均11元 | 餐饮 | 距起点10.6km",
        "user_need": "该区域评分最高的选择之一；位于路线后半段"
      },
      "selected": false
    },
    {
      "id": "189_2577",
      "name": "王二怪 油泼面",
      "lat": 34.179519,
      "lng": 108.93954,
      "category": "餐饮",
      "rating": 4.6,
      "price_per_person": 21.0,
      "address": "省直机关三爻小区D区西门旁",
      "cluster_id": 189,
      "projection_ratio": 1.0,
      "perpendicular_km": 4.86,
      "recommendation_reasons": {
        "structured": "评分4.6 | 人均21元 | 餐饮 | 距起点9.0km",
        "user_need": "该区域评分最高的选择之一；位于路线后半段"
      },
      "selected": false
    },
    {
      "id": "189_2722",
      "name": "清凉山森林公园",
      "lat": 34.174858,
      "lng": 108.931821,
      "category": "景点",
      "rating": 4.6,
      "price_per_person": null,
      "address": "西部大道与东仪路交叉口东500米路北",
      "cluster_id": 189,
      "projection_ratio": 1.0,
      "perpendicular_km": 5.67,
      "recommendation_reasons": {
        "structured": "评分4.6 | 景点 | 距起点9.6km",
        "user_need": "完美匹配您的「景点打卡」需求；完美匹配您的「亲子友好」需求；该区域评分最高的选择之一"
      },
      "selected": false
    },
    {
      "id": "193_2790",
      "name": "喜乐山城老火锅",
      "lat": 34.178779,
      "lng": 108.983219,
      "category": "餐饮",
      "rating": 4.6,
      "price_per_person": 72.0,
      "address": "航天大道1199号",
      "cluster_id": 193,
      "projection_ratio": 1.0,
      "perpendicular_km": 4.72,
      "recommendation_reasons": {
        "structured": "评分4.6 | 人均72元 | 餐饮 | 距起点9.6km",
        "user_need": "该区域评分最高的选择之一；在您的中等预算范围内；位于路线后半段"
      },
      "selected": false
    },
    {
      "id": "291_4166",
      "name": "星聚会ktv(大唐不夜城店)",
      "lat": 34.211915,
      "lng": 108.962386,
      "category": "休闲",
      "rating": 4.6,
      "price_per_person": 60.0,
      "address": "雁南一路17号A1栋2层",
      "cluster_id": 291,
      "projection_ratio": 1.0,
      "perpendicular_km": 0.72,
      "recommendation_reasons": {
        "structured": "评分4.6 | 人均60元 | 休闲 | 距起点5.5km",
        "user_need": "该区域评分最高的选择之一；在您的中等预算范围内；位于路线后半段"
      },
      "selected": false
    },
    {
      "id": "291_4227",
      "name": "唐朝诡事录·西行国潮沉浸剧场",
      "lat": 34.213556,
      "lng": 108.963821,
      "category": "休闲",
      "rating": 4.6,
      "price_per_person": 90.0,
      "address": "大雁塔街道大雁塔街道雁塔南路458号负一层、一层",
      "cluster_id": 291,
      "projection_ratio": 1.0,
      "perpendicular_km": 0.52,
      "recommendation_reasons": {
        "structured": "评分4.6 | 人均90元 | 休闲 | 距起点5.4km",
        "user_need": "该区域评分最高的选择之一；在您的中等预算范围内；位于路线后半段"
      },
      "selected": false
    },
    {
      "id": "291_4329",
      "name": "曼蒂广场",
      "lat": 34.212861,
      "lng": 108.966051,
      "category": "购物",
      "rating": 4.6,
      "price_per_person": null,
      "address": "雁南一路9号",
      "cluster_id": 291,
      "projection_ratio": 1.0,
      "perpendicular_km": 0.62,
      "recommendation_reasons": {
        "structured": "评分4.6 | 购物 | 距起点5.5km",
        "user_need": "该区域评分最高的选择之一；位于路线后半段"
      },
      "selected": false
    },
    {
      "id": "291_4412",
      "name": "大雁塔文化休闲景区",
      "lat": 34.219335,
      "lng": 108.964706,
      "category": "景点",
      "rating": 4.6,
      "price_per_person": null,
      "address": "和平门外雁塔路123号",
      "cluster_id": 291,
      "projection_ratio": 0.981,
      "perpendicular_km": 0.09,
      "recommendation_reasons": {
        "structured": "评分4.6 | 景点 | 距起点4.8km",
        "user_need": "完美匹配您的「景点打卡」需求；该区域评分最高的选择之一；位于路线后半段"
      },
      "selected": false
    },
    {
      "id": "291_14883",
      "name": "SPACELAB失重餐厅(西安大悦城店)",
      "lat": 34.21615,
      "lng": 108.961868,
      "category": "餐饮服务;外国餐厅;西餐厅(综合风味)",
      "rating": 4.6,
      "price_per_person": 110.0,
      "address": "慈恩西路67号西安大悦城4F层L4-18",
      "cluster_id": 291,
      "projection_ratio": 1.0,
      "perpendicular_km": 0.31,
      "recommendation_reasons": {
        "structured": "评分4.6 | 人均110元 | 西餐厅(综合风味) | 距起点5.0km",
        "user_need": "该区域评分最高的选择之一；在您的中等预算范围内；位于路线后半段"
      },
      "selected": false
    },
    {
      "id": "293_4270",
      "name": "刘记火锅鸡(西安总店)",
      "lat": 34.219925,
      "lng": 108.988811,
      "category": "餐饮",
      "rating": 4.6,
      "price_per_person": 69.0,
      "address": "北池头社区东北2门南行50米",
      "cluster_id": 293,
      "projection_ratio": 1.0,
      "perpendicular_km": 2.27,
      "recommendation_reasons": {
        "structured": "评分4.6 | 人均69元 | 餐饮 | 距起点5.8km",
        "user_need": "该区域评分最高的选择之一；在您的中等预算范围内；位于路线后半段"
      },
      "selected": false
    },
    {
      "id": "293_4275",
      "name": "歪歪老火锅",
      "lat": 34.219428,
      "lng": 108.989095,
      "category": "餐饮",
      "rating": 4.6,
      "price_per_person": 70.0,
      "address": "曲江新区北池头二路66号",
      "cluster_id": 293,
      "projection_ratio": 1.0,
      "perpendicular_km": 2.29,
      "recommendation_reasons": {
        "structured": "评分4.6 | 人均70元 | 餐饮 | 距起点5.9km",
        "user_need": "该区域评分最高的选择之一；在您的中等预算范围内；位于路线后半段"
      },
      "selected": false
    },
    {
      "id": "293_4377",
      "name": "曲江海洋极地公园海洋馆",
      "lat": 34.215697,
      "lng": 108.980578,
      "category": "景点",
      "rating": 4.6,
      "price_per_person": null,
      "address": "曲江二路1号曲江海洋极地公园",
      "cluster_id": 293,
      "projection_ratio": 1.0,
      "perpendicular_km": 1.53,
      "recommendation_reasons": {
        "structured": "评分4.6 | 景点 | 距起点5.8km",
        "user_need": "完美匹配您的「景点打卡」需求；完美匹配您的「亲子友好」需求；该区域评分最高的选择之一"
      },
      "selected": false
    },
    {
      "id": "295_4536",
      "name": "咪咪火锅(曲江创意谷店)",
      "lat": 34.213039,
      "lng": 109.008935,
      "category": "餐饮",
      "rating": 4.6,
      "price_per_person": 66.0,
      "address": "曲江新区雁翔路3766号曲江宜居商业10号楼202室",
      "cluster_id": 295,
      "projection_ratio": 1.0,
      "perpendicular_km": 4.16,
      "recommendation_reasons": {
        "structured": "评分4.6 | 人均66元 | 餐饮 | 距起点7.7km",
        "user_need": "该区域评分最高的选择之一；在您的中等预算范围内；位于路线后半段"
      },
      "selected": false
    },
    {
      "id": "295_14775",
      "name": "哈力家·西北烤肉(曲江黄渠头店)",
      "lat": 34.210925,
      "lng": 109.006625,
      "category": "餐饮服务;中餐厅;特色/地方风味餐厅",
      "rating": 4.6,
      "price_per_person": 73.0,
      "address": "黄渠头小区北门社区6号楼10商铺",
      "cluster_id": 295,
      "projection_ratio": 1.0,
      "perpendicular_km": 3.99,
      "recommendation_reasons": {
        "structured": "评分4.6 | 人均73元 | 特色/地方风味餐厅 | 距起点7.7km",
        "user_need": "该区域评分最高的选择之一；在您的中等预算范围内；位于路线后半段"
      },
      "selected": false
    },
    {
      "id": "403_6018",
      "name": "豪门丽SHOW时尚派对",
      "lat": 34.250701,
      "lng": 108.956414,
      "category": "休闲",
      "rating": 4.6,
      "price_per_person": 85.0,
      "address": "环城南路东段阳光丽都大剧院3-5层",
      "cluster_id": 403,
      "projection_ratio": 0.263,
      "perpendicular_km": 0.44,
      "recommendation_reasons": {
        "structured": "评分4.6 | 人均85元 | 休闲 | 距起点1.3km",
        "user_need": "该区域评分最高的选择之一；在您的中等预算范围内；距起点很近"
      },
      "selected": false
    },
    {
      "id": "403_6028",
      "name": "长安国际影城(钟楼店)",
      "lat": 34.259822,
      "lng": 108.95277,
      "category": "休闲",
      "rating": 4.6,
      "price_per_person": 47.0,
      "address": "碑林区东大街533号(钟楼地铁站G1口步行420米)",
      "cluster_id": 403,
      "projection_ratio": 0.044,
      "perpendicular_km": 0.44,
      "recommendation_reasons": {
        "structured": "评分4.6 | 人均47元 | 休闲 | 距起点0.5km",
        "user_need": "该区域评分最高的选择之一；在您的中等预算范围内；距起点步行可达"
      },
      "selected": false
    },
    {
      "id": "403_6070",
      "name": "西安市群众艺术馆",
      "lat": 34.250554,
      "lng": 108.954609,
      "category": "文化",
      "rating": 4.6,
      "price_per_person": null,
      "address": "文艺北路甲字1号",
      "cluster_id": 403,
      "projection_ratio": 0.251,
      "perpendicular_km": 0.28,
      "recommendation_reasons": {
        "structured": "评分4.6 | 文化 | 距起点1.2km",
        "user_need": "该区域评分最高的选择之一；距起点很近"
      },
      "selected": false
    },
    {
      "id": "403_6353",
      "name": "春花脱口秀(钟楼店)",
      "lat": 34.253528,
      "lng": 108.953864,
      "category": "其他",
      "rating": 4.6,
      "price_per_person": null,
      "address": "柏树林10号一层商铺(上二楼)",
      "cluster_id": 403,
      "projection_ratio": 0.184,
      "perpendicular_km": 0.32,
      "recommendation_reasons": {
        "structured": "评分4.6 | 其他 | 距起点0.9km",
        "user_need": "该区域评分最高的选择之一；距起点很近"
      },
      "selected": false
    },
    {
      "id": "403_14488",
      "name": "胡弄寿司(太和广场南楼店)",
      "lat": 34.25769,
      "lng": 108.952414,
      "category": "餐饮服务;外国餐厅;日本料理",
      "rating": 4.6,
      "price_per_person": 97.0,
      "address": "中柳巷27号(钟楼地铁站G1口步行230米)",
      "cluster_id": 403,
      "projection_ratio": 0.085,
      "perpendicular_km": 0.33,
      "recommendation_reasons": {
        "structured": "评分4.6 | 人均97元 | 日本料理 | 距起点0.5km",
        "user_need": "该区域评分最高的选择之一；在您的中等预算范围内；距起点步行可达"
      },
      "selected": false
    },
    {
      "id": "403_14489",
      "name": "手岛寿司(钟楼店)",
      "lat": 34.257926,
      "lng": 108.9524,
      "category": "餐饮服务;外国餐厅;日本料理",
      "rating": 4.6,
      "price_per_person": 86.0,
      "address": "东柳巷东北烧烤对面(钟楼地铁站G1口步行190米)",
      "cluster_id": 403,
      "projection_ratio": 0.08,
      "perpendicular_km": 0.34,
      "recommendation_reasons": {
        "structured": "评分4.6 | 人均86元 | 日本料理 | 距起点0.5km",
        "user_need": "该区域评分最高的选择之一；在您的中等预算范围内；距起点步行可达"
      },
      "selected": false
    },
    {
      "id": "403_14816",
      "name": "富山刨冰kakigori",
      "lat": 34.257237,
      "lng": 108.952649,
      "category": "餐饮服务;冷饮店;冷饮店",
      "rating": 4.6,
      "price_per_person": 45.0,
      "address": "柏树林街道中柳巷3号院(钟楼地铁站G1口步行290米)",
      "cluster_id": 403,
      "projection_ratio": 0.097,
      "perpendicular_km": 0.34,
      "recommendation_reasons": {
        "structured": "评分4.6 | 人均45元 | 冷饮店 | 距起点0.5km",
        "user_need": "该区域评分最高的选择之一；在您的中等预算范围内；距起点很近"
      },
      "selected": false
    },
    {
      "id": "403_14855",
      "name": "夏奇拉小酒馆",
      "lat": 34.258309,
      "lng": 108.952094,
      "category": "餐饮服务;中餐厅;中餐厅",
      "rating": 4.6,
      "price_per_person": 85.0,
      "address": "太和广场2楼(钟楼地铁站G1口步行120米)",
      "cluster_id": 403,
      "projection_ratio": 0.07,
      "perpendicular_km": 0.33,
      "recommendation_reasons": {
        "structured": "评分4.6 | 人均85元 | 中餐厅 | 距起点0.4km",
        "user_need": "该区域评分最高的选择之一；在您的中等预算范围内；距起点步行可达"
      },
      "selected": false
    },
    {
      "id": "403_14856",
      "name": "Helens海伦司小酒馆(西安骡马市星悦MALL店)",
      "lat": 34.259124,
      "lng": 108.951859,
      "category": "体育休闲服务;娱乐场所;酒吧",
      "rating": 4.6,
      "price_per_person": 68.0,
      "address": "东大街骡马市1号星悦MALLA座3层(钟楼地铁站G1口旁)",
      "cluster_id": 403,
      "projection_ratio": 0.051,
      "perpendicular_km": 0.33,
      "recommendation_reasons": {
        "structured": "评分4.6 | 人均68元 | 酒吧 | 距起点0.4km",
        "user_need": "该区域评分最高的选择之一；在您的中等预算范围内；距起点步行可达"
      },
      "selected": false
    },
    {
      "id": "406_6160",
      "name": "山由之Cafe&Meal(兴庆宫公园店)",
      "lat": 34.25434,
      "lng": 108.98218,
      "category": "餐饮",
      "rating": 4.6,
      "price_per_person": 56.0,
      "address": "咸宁西路55号兴庆宫公园龙池坊街区46号",
      "cluster_id": 406,
      "projection_ratio": 0.398,
      "perpendicular_km": 2.84,
      "recommendation_reasons": {
        "structured": "评分4.6 | 人均56元 | 餐饮 | 距起点3.2km",
        "user_need": "完美匹配您的「景点打卡」需求；完美匹配您的「亲子友好」需求；该区域评分最高的选择之一"
      },
      "selected": false
    },
    {
      "id": "406_6271",
      "name": "陕西唐三彩艺术博物馆",
      "lat": 34.255965,
      "lng": 108.984481,
      "category": "景点",
      "rating": 4.6,
      "price_per_person": null,
      "address": "咸宁路55号兴庆宫公园南薰阁",
      "cluster_id": 406,
      "projection_ratio": 0.383,
      "perpendicular_km": 3.1,
      "recommendation_reasons": {
        "structured": "评分4.6 | 景点 | 距起点3.4km",
        "user_need": "完美匹配您的「景点打卡」需求；完美匹配您的「亲子友好」需求；该区域评分最高的选择之一"
      },
      "selected": false
    },
    {
      "id": "433_5782",
      "name": "老刘家泡馍.陕西老字号(钟鼓楼广济街)",
      "lat": 34.261193,
      "lng": 108.939087,
      "category": "餐饮",
      "rating": 4.6,
      "price_per_person": 23.0,
      "address": "北广济街101号(广济街地铁站A1口步行290米)",
      "cluster_id": 433,
      "projection_ratio": 0.0,
      "perpendicular_km": 0.81,
      "recommendation_reasons": {
        "structured": "评分4.6 | 人均23元 | 餐饮 | 距起点0.8km",
        "user_need": "该区域评分最高的选择之一；距起点很近"
      },
      "selected": false
    },
    {
      "id": "433_5787",
      "name": "清真·郭楠烤肉",
      "lat": 34.2611,
      "lng": 108.938729,
      "category": "餐饮",
      "rating": 4.6,
      "price_per_person": 55.0,
      "address": "社会北路10号",
      "cluster_id": 433,
      "projection_ratio": 0.0,
      "perpendicular_km": 0.84,
      "recommendation_reasons": {
        "structured": "评分4.6 | 人均55元 | 餐饮 | 距起点0.8km",
        "user_need": "该区域评分最高的选择之一；在您的中等预算范围内；距起点很近"
      },
      "selected": false
    },
    {
      "id": "433_5803",
      "name": "清真回坊聊串",
      "lat": 34.263268,
      "lng": 108.937388,
      "category": "餐饮",
      "rating": 4.6,
      "price_per_person": 47.0,
      "address": "庙后街57号",
      "cluster_id": 433,
      "projection_ratio": 0.0,
      "perpendicular_km": 1.02,
      "recommendation_reasons": {
        "structured": "评分4.6 | 人均47元 | 餐饮 | 距起点1.0km",
        "user_need": "该区域评分最高的选择之一；在您的中等预算范围内；距起点很近"
      },
      "selected": false
    },
    {
      "id": "514_7651",
      "name": "小阁楼铜锅涮肉",
      "lat": 34.292894,
      "lng": 108.894111,
      "category": "餐饮",
      "rating": 4.6,
      "price_per_person": 72.0,
      "address": "梨园路沁园春小区15号",
      "cluster_id": 514,
      "projection_ratio": 0.0,
      "perpendicular_km": 6.14,
      "recommendation_reasons": {
        "structured": "评分4.6 | 人均72元 | 餐饮 | 距起点6.1km",
        "user_need": "该区域评分最高的选择之一；在您的中等预算范围内；位于路线后半段"
      },
      "selected": false
    },
    {
      "id": "514_7683",
      "name": "魏家凉皮(梨园路店)",
      "lat": 34.293093,
      "lng": 108.899849,
      "category": "餐饮",
      "rating": 4.6,
      "price_per_person": 24.0,
      "address": "梨园路189号德方·青年公馆F1层",
      "cluster_id": 514,
      "projection_ratio": 0.0,
      "perpendicular_km": 5.74,
      "recommendation_reasons": {
        "structured": "评分4.6 | 人均24元 | 餐饮 | 距起点5.7km",
        "user_need": "该区域评分最高的选择之一；位于路线后半段"
      },
      "selected": false
    },
    {
      "id": "187_2389",
      "name": "湊湊火锅·茶憩(西安荟聚店)",
      "lat": 34.173083,
      "lng": 108.900529,
      "category": "餐饮",
      "rating": 4.5,
      "price_per_person": 84.0,
      "address": "子午大道6号荟聚中心LG1层1号门旁边",
      "cluster_id": 187,
      "projection_ratio": 1.0,
      "perpendicular_km": 7.71,
      "recommendation_reasons": {
        "structured": "评分4.5 | 人均84元 | 餐饮 | 距起点10.6km",
        "user_need": "该区域评分最高的选择之一；在您的中等预算范围内；位于路线后半段"
      },
      "selected": false
    },
    {
      "id": "187_2403",
      "name": "王奋斗贵州酸汤牛肉火锅(西安荟聚店)",
      "lat": 34.172375,
      "lng": 108.901475,
      "category": "餐饮",
      "rating": 4.5,
      "price_per_person": 95.0,
      "address": "子午大道6号西安荟聚L3层03D025号",
      "cluster_id": 187,
      "projection_ratio": 1.0,
      "perpendicular_km": 7.7,
      "recommendation_reasons": {
        "structured": "评分4.5 | 人均95元 | 餐饮 | 距起点10.6km",
        "user_need": "该区域评分最高的选择之一；在您的中等预算范围内；位于路线后半段"
      },
      "selected": false
    },
    {
      "id": "187_2407",
      "name": "围着寿喜烧和牛自助火锅(西安荟聚店)",
      "lat": 34.171989,
      "lng": 108.902926,
      "category": "餐饮",
      "rating": 4.5,
      "price_per_person": 154.0,
      "address": "子午大道6号西安荟聚01C010",
      "cluster_id": 187,
      "projection_ratio": 1.0,
      "perpendicular_km": 7.63,
      "recommendation_reasons": {
        "structured": "评分4.5 | 人均154元 | 餐饮 | 距起点10.6km",
        "user_need": "该区域评分最高的选择之一；位于路线后半段"
      },
      "selected": false
    },
    {
      "id": "187_2417",
      "name": "M Stand(西安荟聚店)",
      "lat": 34.17206,
      "lng": 108.901104,
      "category": "餐饮",
      "rating": 4.5,
      "price_per_person": 32.0,
      "address": "西沣二路西安荟聚中心L1层01B008铺",
      "cluster_id": 187,
      "projection_ratio": 1.0,
      "perpendicular_km": 7.75,
      "recommendation_reasons": {
        "structured": "评分4.5 | 人均32元 | 餐饮 | 距起点10.7km",
        "user_need": "该区域评分最高的选择之一；在您的中等预算范围内；位于路线后半段"
      },
      "selected": false
    },
    {
      "id": "193_2787",
      "name": "来些烤肉",
      "lat": 34.178725,
      "lng": 108.982925,
      "category": "餐饮",
      "rating": 4.5,
      "price_per_person": 85.0,
      "address": "春临四路与公田二路交叉口东北角大华樾境10105商铺",
      "cluster_id": 193,
      "projection_ratio": 1.0,
      "perpendicular_km": 4.72,
      "recommendation_reasons": {
        "structured": "评分4.5 | 人均85元 | 餐饮 | 距起点9.6km",
        "user_need": "该区域评分最高的选择之一；在您的中等预算范围内；位于路线后半段"
      },
      "selected": false
    },
    {
      "id": "285_3740",
      "name": "颂城市客厅(CLASS国际公馆A座店)",
      "lat": 34.216819,
      "lng": 108.890206,
      "category": "休闲",
      "rating": 4.5,
      "price_per_person": 353.0,
      "address": "唐延路37号CLASS国际公馆A座5楼",
      "cluster_id": 285,
      "projection_ratio": 0.425,
      "perpendicular_km": 6.57,
      "recommendation_reasons": {
        "structured": "评分4.5 | 人均353元 | 休闲 | 距起点7.1km",
        "user_need": "该区域评分最高的选择之一；位于路线后半段"
      },
      "selected": false
    },
    {
      "id": "285_3766",
      "name": "星巴克(西安万科金域国际店)",
      "lat": 34.219487,
      "lng": 108.893278,
      "category": "餐饮",
      "rating": 4.5,
      "price_per_person": 30.0,
      "address": "高新一路40号万科金域国际A栋",
      "cluster_id": 285,
      "projection_ratio": 0.395,
      "perpendicular_km": 6.21,
      "recommendation_reasons": {
        "structured": "评分4.5 | 人均30元 | 餐饮 | 距起点6.7km",
        "user_need": "该区域评分最高的选择之一；在您的中等预算范围内；位于路线后半段"
      },
      "selected": false
    },
    {
      "id": "291_4328",
      "name": "西安·新乐汇",
      "lat": 34.21475,
      "lng": 108.965482,
      "category": "购物",
      "rating": 4.5,
      "price_per_person": null,
      "address": "雁塔南路518号",
      "cluster_id": 291,
      "projection_ratio": 1.0,
      "perpendicular_km": 0.41,
      "recommendation_reasons": {
        "structured": "评分4.5 | 购物 | 距起点5.3km",
        "user_need": "该区域评分最高的选择之一；位于路线后半段"
      },
      "selected": false
    },
    {
      "id": "291_14240",
      "name": "竹鲜笙(大唐不夜城店)",
      "lat": 34.211723,
      "lng": 108.961223,
      "category": "餐饮服务;中餐厅;火锅店",
      "rating": 4.5,
      "price_per_person": 103.0,
      "address": "雁南一路与慈恩西路交叉口东20米",
      "cluster_id": 291,
      "projection_ratio": 1.0,
      "perpendicular_km": 0.77,
      "recommendation_reasons": {
        "structured": "评分4.5 | 人均103元 | 火锅店 | 距起点5.5km",
        "user_need": "该区域评分最高的选择之一；在您的中等预算范围内；位于路线后半段"
      },
      "selected": false
    },
    {
      "id": "293_4356",
      "name": "八马茶业(曲江海洋馆店)",
      "lat": 34.218111,
      "lng": 108.981751,
      "category": "其他",
      "rating": 4.5,
      "price_per_person": 99.0,
      "address": "中海·熙岸西北3门旁",
      "cluster_id": 293,
      "projection_ratio": 1.0,
      "perpendicular_km": 1.62,
      "recommendation_reasons": {
        "structured": "评分4.5 | 人均99元 | 其他 | 距起点5.6km",
        "user_need": "该区域评分最高的选择之一；在您的中等预算范围内；位于路线后半段"
      },
      "selected": false
    },
    {
      "id": "293_4386",
      "name": "曲江海洋极地公园",
      "lat": 34.21524,
      "lng": 108.980537,
      "category": "景点",
      "rating": 4.5,
      "price_per_person": null,
      "address": "曲江二路1号(北池头一路与芙蓉东路交叉口)",
      "cluster_id": 293,
      "projection_ratio": 1.0,
      "perpendicular_km": 1.54,
      "recommendation_reasons": {
        "structured": "评分4.5 | 景点 | 距起点5.8km",
        "user_need": "完美匹配您的「景点打卡」需求；完美匹配您的「亲子友好」需求；该区域评分最高的选择之一"
      },
      "selected": false
    },
    {
      "id": "295_14773",
      "name": "叁宝烤肉• 西安烧烤 领跑品牌(黄渠头店)",
      "lat": 34.210825,
      "lng": 109.006094,
      "category": "餐饮服务;外国餐厅;外国餐厅",
      "rating": 4.5,
      "price_per_person": 64.0,
      "address": "曲江新区雁翔路黄渠头社区北门7号楼一层02号商铺",
      "cluster_id": 295,
      "projection_ratio": 1.0,
      "perpendicular_km": 3.94,
      "recommendation_reasons": {
        "structured": "评分4.5 | 人均64元 | 外国餐厅 | 距起点7.7km",
        "user_need": "该区域评分最高的选择之一；在您的中等预算范围内；位于路线后半段"
      },
      "selected": false
    },
    {
      "id": "295_14776",
      "name": "石羊农庄",
      "lat": 34.216836,
      "lng": 109.003965,
      "category": "餐饮服务;中餐厅;中餐厅|体育休闲服务;休闲场所;休闲场所",
      "rating": 4.5,
      "price_per_person": 104.0,
      "address": "雁翔路93号(理工大曲江校区地铁站C口步行270米)",
      "cluster_id": 295,
      "projection_ratio": 1.0,
      "perpendicular_km": 3.66,
      "recommendation_reasons": {
        "structured": "评分4.5 | 人均104元 | 休闲场所 | 距起点7.0km",
        "user_need": "该区域评分最高的选择之一；在您的中等预算范围内；位于路线后半段"
      },
      "selected": false
    },
    {
      "id": "403_6350",
      "name": "阳光丽都大剧院",
      "lat": 34.250511,
      "lng": 108.956304,
      "category": "休闲",
      "rating": 4.5,
      "price_per_person": null,
      "address": "文艺路街道文艺路街道文艺路北口环城南路东段29号",
      "cluster_id": 403,
      "projection_ratio": 0.266,
      "perpendicular_km": 0.43,
      "recommendation_reasons": {
        "structured": "评分4.5 | 休闲 | 距起点1.3km",
        "user_need": "该区域评分最高的选择之一；距起点很近"
      },
      "selected": false
    },
    {
      "id": "403_14858",
      "name": "西唐克莱斯空中花园餐厅",
      "lat": 34.252988,
      "lng": 108.950199,
      "category": "餐饮服务;中餐厅;中餐厅",
      "rating": 4.5,
      "price_per_person": 88.0,
      "address": "书院门步行街33号4幢西唐客栈4楼",
      "cluster_id": 403,
      "projection_ratio": 0.165,
      "perpendicular_km": 0.03,
      "recommendation_reasons": {
        "structured": "评分4.5 | 人均88元 | 中餐厅 | 距起点0.8km",
        "user_need": "该区域评分最高的选择之一；在您的中等预算范围内；距起点很近"
      },
      "selected": false
    },
    {
      "id": "433_5728",
      "name": "西五台云居寺",
      "lat": 34.268235,
      "lng": 108.930934,
      "category": "景点",
      "rating": 4.5,
      "price_per_person": null,
      "address": "北院门街道北院门街道莲湖路洒金桥162号",
      "cluster_id": 433,
      "projection_ratio": 0.0,
      "perpendicular_km": 1.8,
      "recommendation_reasons": {
        "structured": "评分4.5 | 景点 | 距起点1.8km",
        "user_need": "完美匹配您的「景点打卡」需求；该区域评分最高的选择之一；距起点适中"
      },
      "selected": false
    },
    {
      "id": "433_5775",
      "name": "黑眼圈烤肉",
      "lat": 34.260122,
      "lng": 108.939255,
      "category": "餐饮",
      "rating": 4.5,
      "price_per_person": 47.0,
      "address": "西大街105号时代盛典东侧地面停车场内50米(广济街地铁站D2口向西50米右拐东)侧B1东侧A1",
      "cluster_id": 433,
      "projection_ratio": 0.0,
      "perpendicular_km": 0.78,
      "recommendation_reasons": {
        "structured": "评分4.5 | 人均47元 | 餐饮 | 距起点0.8km",
        "user_need": "该区域评分最高的选择之一；在您的中等预算范围内；距起点很近"
      },
      "selected": false
    },
    {
      "id": "433_5779",
      "name": "清真张庆烤肉店",
      "lat": 34.260989,
      "lng": 108.938949,
      "category": "餐饮",
      "rating": 4.5,
      "price_per_person": 54.0,
      "address": "广济街地铁站A1口步行250米",
      "cluster_id": 433,
      "projection_ratio": 0.0,
      "perpendicular_km": 0.81,
      "recommendation_reasons": {
        "structured": "评分4.5 | 人均54元 | 餐饮 | 距起点0.8km",
        "user_need": "该区域评分最高的选择之一；在您的中等预算范围内；距起点很近"
      },
      "selected": false
    },
    {
      "id": "433_5784",
      "name": "老白家水盆羊肉",
      "lat": 34.261238,
      "lng": 108.93899,
      "category": "餐饮",
      "rating": 4.5,
      "price_per_person": 33.0,
      "address": "北广济街76号地铁口150米路西",
      "cluster_id": 433,
      "projection_ratio": 0.0,
      "perpendicular_km": 0.82,
      "recommendation_reasons": {
        "structured": "评分4.5 | 人均33元 | 餐饮 | 距起点0.8km",
        "user_need": "该区域评分最高的选择之一；在您的中等预算范围内；距起点很近"
      },
      "selected": false
    },
    {
      "id": "433_5872",
      "name": "军军绿豆糕土特产(北广济街店)",
      "lat": 34.260899,
      "lng": 108.938979,
      "category": "餐饮",
      "rating": 4.5,
      "price_per_person": 19.0,
      "address": "北广济街72号",
      "cluster_id": 433,
      "projection_ratio": 0.0,
      "perpendicular_km": 0.81,
      "recommendation_reasons": {
        "structured": "评分4.5 | 人均19元 | 餐饮 | 距起点0.8km",
        "user_need": "该区域评分最高的选择之一；距起点很近"
      },
      "selected": false
    },
    {
      "id": "514_7633",
      "name": "重庆伙计火串串火锅(西安总店)",
      "lat": 34.293095,
      "lng": 108.899844,
      "category": "餐饮",
      "rating": 4.5,
      "price_per_person": 83.0,
      "address": "梨园路乔布斯公馆一楼商铺",
      "cluster_id": 514,
      "projection_ratio": 0.0,
      "perpendicular_km": 5.74,
      "recommendation_reasons": {
        "structured": "评分4.5 | 人均83元 | 餐饮 | 距起点5.7km",
        "user_need": "该区域评分最高的选择之一；在您的中等预算范围内；位于路线后半段"
      },
      "selected": false
    },
    {
      "id": "514_7638",
      "name": "有家·酸汤鱼(梨园路店)",
      "lat": 34.292544,
      "lng": 108.899273,
      "category": "餐饮",
      "rating": 4.5,
      "price_per_person": 60.0,
      "address": "天朗·大兴郡悦城北门旁",
      "cluster_id": 514,
      "projection_ratio": 0.0,
      "perpendicular_km": 5.74,
      "recommendation_reasons": {
        "structured": "评分4.5 | 人均60元 | 餐饮 | 距起点5.7km",
        "user_need": "该区域评分最高的选择之一；在您的中等预算范围内；位于路线后半段"
      },
      "selected": false
    },
    {
      "id": "553_7840",
      "name": "瑞幸咖啡(红星美凯龙龙首店)",
      "lat": 34.300394,
      "lng": 108.945414,
      "category": "餐饮",
      "rating": 4.5,
      "price_per_person": 14.0,
      "address": "未央路80号红星美凯龙一层A8170号",
      "cluster_id": 553,
      "projection_ratio": 0.0,
      "perpendicular_km": 4.5,
      "recommendation_reasons": {
        "structured": "评分4.5 | 人均14元 | 餐饮 | 距起点4.5km",
        "user_need": "该区域评分最高的选择之一；位于路线后半段"
      },
      "selected": false
    },
    {
      "id": "553_7862",
      "name": "瑞幸咖啡(荣民时代广场店)",
      "lat": 34.30634,
      "lng": 108.947825,
      "category": "餐饮",
      "rating": 4.5,
      "price_per_person": 12.0,
      "address": "荣民·时代SOHO",
      "cluster_id": 553,
      "projection_ratio": 0.0,
      "perpendicular_km": 5.16,
      "recommendation_reasons": {
        "structured": "评分4.5 | 人均12元 | 餐饮 | 距起点5.2km",
        "user_need": "该区域评分最高的选择之一；位于路线后半段"
      },
      "selected": false
    },
    {
      "id": "553_7867",
      "name": "贾家水盆",
      "lat": 34.302418,
      "lng": 108.940504,
      "category": "餐饮",
      "rating": 4.5,
      "price_per_person": 33.0,
      "address": "凤城南路17号",
      "cluster_id": 553,
      "projection_ratio": 0.0,
      "perpendicular_km": 4.77,
      "recommendation_reasons": {
        "structured": "评分4.5 | 人均33元 | 餐饮 | 距起点4.8km",
        "user_need": "该区域评分最高的选择之一；在您的中等预算范围内；位于路线后半段"
      },
      "selected": false
    },
    {
      "id": "553_7873",
      "name": "沁味居三鲜煮馍(中外运小区店)",
      "lat": 34.30243,
      "lng": 108.941647,
      "category": "餐饮",
      "rating": 4.5,
      "price_per_person": 42.0,
      "address": "西安市国土资源局未央分局执法监察队南门旁",
      "cluster_id": 553,
      "projection_ratio": 0.0,
      "perpendicular_km": 4.75,
      "recommendation_reasons": {
        "structured": "评分4.5 | 人均42元 | 餐饮 | 距起点4.8km",
        "user_need": "该区域评分最高的选择之一；在您的中等预算范围内；位于路线后半段"
      },
      "selected": false
    },
    {
      "id": "187_2399",
      "name": "沙胆彪炭炉牛杂煲(西安荟聚中心店)",
      "lat": 34.172518,
      "lng": 108.901422,
      "category": "餐饮",
      "rating": 4.4,
      "price_per_person": 62.0,
      "address": "子午大道6号西安荟聚中心L03层03A002",
      "cluster_id": 187,
      "projection_ratio": 1.0,
      "perpendicular_km": 7.69,
      "recommendation_reasons": {
        "structured": "评分4.4 | 人均62元 | 餐饮 | 距起点10.6km",
        "user_need": "口碑优秀的高评分选择；在您的中等预算范围内；位于路线后半段"
      },
      "selected": false
    },
    {
      "id": "187_2402",
      "name": "洪氏嗨捞荟聚中心店",
      "lat": 34.172479,
      "lng": 108.901569,
      "category": "餐饮",
      "rating": 4.4,
      "price_per_person": 95.0,
      "address": "L3层D030",
      "cluster_id": 187,
      "projection_ratio": 1.0,
      "perpendicular_km": 7.68,
      "recommendation_reasons": {
        "structured": "评分4.4 | 人均95元 | 餐饮 | 距起点10.6km",
        "user_need": "口碑优秀的高评分选择；在您的中等预算范围内；位于路线后半段"
      },
      "selected": false
    },
    {
      "id": "187_2414",
      "name": "Tims天好咖啡(西安荟聚店)",
      "lat": 34.172745,
      "lng": 108.902836,
      "category": "餐饮",
      "rating": 4.4,
      "price_per_person": 25.0,
      "address": "雁塔区子午大道与西部大道十字西北角荟聚LG1C001号",
      "cluster_id": 187,
      "projection_ratio": 1.0,
      "perpendicular_km": 7.58,
      "recommendation_reasons": {
        "structured": "评分4.4 | 人均25元 | 餐饮 | 距起点10.5km",
        "user_need": "口碑优秀的高评分选择；位于路线后半段"
      },
      "selected": false
    },
    {
      "id": "187_2548",
      "name": "泛时空(西安店)",
      "lat": 34.17234,
      "lng": 108.90243,
      "category": "休闲",
      "rating": 4.4,
      "price_per_person": 60.0,
      "address": "雁塔区子午大道6号西安荟聚中心二层02C007号",
      "cluster_id": 187,
      "projection_ratio": 1.0,
      "perpendicular_km": 7.63,
      "recommendation_reasons": {
        "structured": "评分4.4 | 人均60元 | 休闲 | 距起点10.6km",
        "user_need": "口碑优秀的高评分选择；在您的中等预算范围内；位于路线后半段"
      },
      "selected": false
    },
    {
      "id": "189_2727",
      "name": "清凉寺",
      "lat": 34.17577,
      "lng": 108.930258,
      "category": "景点",
      "rating": 4.4,
      "price_per_person": null,
      "address": "西部大道与东仪路交叉口",
      "cluster_id": 189,
      "projection_ratio": 1.0,
      "perpendicular_km": 5.66,
      "recommendation_reasons": {
        "structured": "评分4.4 | 景点 | 距起点9.5km",
        "user_need": "完美匹配您的「景点打卡」需求；口碑优秀的高评分选择；位于路线后半段"
      },
      "selected": false
    },
    {
      "id": "193_2785",
      "name": "德克士(公田二路店)",
      "lat": 34.178656,
      "lng": 108.98281,
      "category": "餐饮",
      "rating": 4.4,
      "price_per_person": 30.0,
      "address": "曲江大华公园世家14号楼10104室",
      "cluster_id": 193,
      "projection_ratio": 1.0,
      "perpendicular_km": 4.72,
      "recommendation_reasons": {
        "structured": "评分4.4 | 人均30元 | 餐饮 | 距起点9.6km",
        "user_need": "口碑优秀的高评分选择；在您的中等预算范围内；位于路线后半段"
      },
      "selected": false
    },
    {
      "id": "193_2789",
      "name": "九号小锅炖",
      "lat": 34.178778,
      "lng": 108.983198,
      "category": "餐饮",
      "rating": 4.4,
      "price_per_person": 55.0,
      "address": "曲江新区春临四路1555号大华樾境14栋10109号",
      "cluster_id": 193,
      "projection_ratio": 1.0,
      "perpendicular_km": 4.72,
      "recommendation_reasons": {
        "structured": "评分4.4 | 人均55元 | 餐饮 | 距起点9.6km",
        "user_need": "口碑优秀的高评分选择；在您的中等预算范围内；位于路线后半段"
      },
      "selected": false
    },
    {
      "id": "196_2960",
      "name": "云隐林见户外烧",
      "lat": 34.178037,
      "lng": 109.023123,
      "category": "餐饮",
      "rating": 4.4,
      "price_per_person": 176.0,
      "address": "雁翔路1号雅森皇家上林苑内贰号院房屋",
      "cluster_id": 196,
      "projection_ratio": 1.0,
      "perpendicular_km": 7.03,
      "recommendation_reasons": {
        "structured": "评分4.4 | 人均176元 | 餐饮 | 距起点11.4km",
        "user_need": "口碑优秀的高评分选择；位于路线后半段"
      },
      "selected": false
    },
    {
      "id": "285_3775",
      "name": "TABLE FOR TWO咖啡馆(旺座现代城D座店)",
      "lat": 34.216079,
      "lng": 108.891947,
      "category": "餐饮",
      "rating": 4.4,
      "price_per_person": 36.0,
      "address": "丈八沟街道高新区旺座现代城D座一楼南面20103室",
      "cluster_id": 285,
      "projection_ratio": 0.455,
      "perpendicular_km": 6.44,
      "recommendation_reasons": {
        "structured": "评分4.4 | 人均36元 | 餐饮 | 距起点7.1km",
        "user_need": "口碑优秀的高评分选择；在您的中等预算范围内；位于路线后半段"
      },
      "selected": false
    },
    {
      "id": "285_3882",
      "name": "人和茶舍·棋牌室·茶饮(高新店)",
      "lat": 34.21738,
      "lng": 108.894662,
      "category": "餐饮",
      "rating": 4.4,
      "price_per_person": 70.0,
      "address": "高新路与望庭尚街交叉口北80米",
      "cluster_id": 285,
      "projection_ratio": 0.45,
      "perpendicular_km": 6.16,
      "recommendation_reasons": {
        "structured": "评分4.4 | 人均70元 | 餐饮 | 距起点6.8km",
        "user_need": "口碑优秀的高评分选择；在您的中等预算范围内；位于路线后半段"
      },
      "selected": false
    },
    {
      "id": "285_3899",
      "name": "麻小确24h自助棋牌(尚品国际店)",
      "lat": 34.213275,
      "lng": 108.892125,
      "category": "休闲",
      "rating": 4.4,
      "price_per_person": 14.0,
      "address": "丈八街办高新路88号尚品国际C座2单元20楼2008",
      "cluster_id": 285,
      "projection_ratio": 0.514,
      "perpendicular_km": 6.52,
      "recommendation_reasons": {
        "structured": "评分4.4 | 人均14元 | 休闲 | 距起点7.3km",
        "user_need": "口碑优秀的高评分选择；位于路线后半段"
      },
      "selected": false
    },
    {
      "id": "291_4226",
      "name": "民俗荟萃舞台",
      "lat": 34.214499,
      "lng": 108.964153,
      "category": "休闲",
      "rating": 4.4,
      "price_per_person": null,
      "address": "雁塔南路与慈恩路交叉口南100米",
      "cluster_id": 291,
      "projection_ratio": 1.0,
      "perpendicular_km": 0.41,
      "recommendation_reasons": {
        "structured": "评分4.4 | 休闲 | 距起点5.3km",
        "user_need": "口碑优秀的高评分选择；位于路线后半段"
      },
      "selected": false
    },
    {
      "id": "293_4271",
      "name": "山城九宫格火锅",
      "lat": 34.219774,
      "lng": 108.988929,
      "category": "餐饮",
      "rating": 4.4,
      "price_per_person": 63.0,
      "address": "曲江新区北头社区临街商铺62号",
      "cluster_id": 293,
      "projection_ratio": 1.0,
      "perpendicular_km": 2.28,
      "recommendation_reasons": {
        "structured": "评分4.4 | 人均63元 | 餐饮 | 距起点5.9km",
        "user_need": "口碑优秀的高评分选择；在您的中等预算范围内；位于路线后半段"
      },
      "selected": false
    },
    {
      "id": "293_4272",
      "name": "匡大姐油卤串串(曲江北池头店)",
      "lat": 34.219756,
      "lng": 108.988972,
      "category": "餐饮",
      "rating": 4.4,
      "price_per_person": 39.0,
      "address": "北池头一路1589号北池头社区",
      "cluster_id": 293,
      "projection_ratio": 1.0,
      "perpendicular_km": 2.29,
      "recommendation_reasons": {
        "structured": "评分4.4 | 人均39元 | 餐饮 | 距起点5.9km",
        "user_need": "口碑优秀的高评分选择；在您的中等预算范围内；位于路线后半段"
      },
      "selected": false
    },
    {
      "id": "293_4277",
      "name": "典牛司·潮汕牛肉火锅",
      "lat": 34.219271,
      "lng": 108.989282,
      "category": "餐饮",
      "rating": 4.4,
      "price_per_person": 54.0,
      "address": "曲江街道北池头小区外围商铺69号",
      "cluster_id": 293,
      "projection_ratio": 1.0,
      "perpendicular_km": 2.31,
      "recommendation_reasons": {
        "structured": "评分4.4 | 人均54元 | 餐饮 | 距起点5.9km",
        "user_need": "口碑优秀的高评分选择；在您的中等预算范围内；位于路线后半段"
      },
      "selected": false
    },
    {
      "id": "293_4348",
      "name": "华美达眼镜•控优点•星趣控(中海御湖店)",
      "lat": 34.218361,
      "lng": 108.981142,
      "category": "购物",
      "rating": 4.4,
      "price_per_person": null,
      "address": "中海·御湖东门西南50米",
      "cluster_id": 293,
      "projection_ratio": 1.0,
      "perpendicular_km": 1.56,
      "recommendation_reasons": {
        "structured": "评分4.4 | 购物 | 距起点5.6km",
        "user_need": "口碑优秀的高评分选择；位于路线后半段"
      },
      "selected": false
    },
    {
      "id": "295_4538",
      "name": "清真·胡弄巷·烧烤涮锅(雁翔路店)",
      "lat": 34.21251,
      "lng": 109.008128,
      "category": "餐饮",
      "rating": 4.4,
      "price_per_person": 65.0,
      "address": "曲江宜居东南门西南50米",
      "cluster_id": 295,
      "projection_ratio": 1.0,
      "perpendicular_km": 4.09,
      "recommendation_reasons": {
        "structured": "评分4.4 | 人均65元 | 餐饮 | 距起点7.7km",
        "user_need": "口碑优秀的高评分选择；在您的中等预算范围内；位于路线后半段"
      },
      "selected": false
    },
    {
      "id": "295_4541",
      "name": "毛毛老火锅(曲江店)",
      "lat": 34.211959,
      "lng": 109.008219,
      "category": "餐饮",
      "rating": 4.4,
      "price_per_person": 64.0,
      "address": "黄渠头小区西北门东北50米",
      "cluster_id": 295,
      "projection_ratio": 1.0,
      "perpendicular_km": 4.11,
      "recommendation_reasons": {
        "structured": "评分4.4 | 人均64元 | 餐饮 | 距起点7.7km",
        "user_need": "口碑优秀的高评分选择；在您的中等预算范围内；位于路线后半段"
      },
      "selected": false
    },
    {
      "id": "295_4659",
      "name": "久雀自助棋牌茶室(黄渠头店)",
      "lat": 34.211798,
      "lng": 109.00807,
      "category": "休闲",
      "rating": 4.4,
      "price_per_person": 19.0,
      "address": "曲江新区雁翔路79号黄渠头小区西北门4号楼二层11号商铺",
      "cluster_id": 295,
      "projection_ratio": 1.0,
      "perpendicular_km": 4.1,
      "recommendation_reasons": {
        "structured": "评分4.4 | 人均19元 | 休闲 | 距起点7.7km",
        "user_need": "口碑优秀的高评分选择；位于路线后半段"
      },
      "selected": false
    },
    {
      "id": "403_6064",
      "name": "长安画派艺术中心",
      "lat": 34.259801,
      "lng": 108.950975,
      "category": "文化",
      "rating": 4.4,
      "price_per_person": null,
      "address": "东大街587号(钟楼地铁站H口步行100米)",
      "cluster_id": 403,
      "projection_ratio": 0.03,
      "perpendicular_km": 0.28,
      "recommendation_reasons": {
        "structured": "评分4.4 | 文化 | 距起点0.3km",
        "user_need": "口碑优秀的高评分选择；距起点步行可达"
      },
      "selected": false
    },
    {
      "id": "403_14268",
      "name": "5%健身(骡马市民生百货店)",
      "lat": 34.259175,
      "lng": 108.951525,
      "category": "体育休闲服务;运动场馆;健身中心",
      "rating": 4.4,
      "price_per_person": 741.0,
      "address": "骡马市民生百货(钟楼地铁站G1口旁)",
      "cluster_id": 403,
      "projection_ratio": 0.047,
      "perpendicular_km": 0.31,
      "recommendation_reasons": {
        "structured": "评分4.4 | 人均741元 | 健身中心 | 距起点0.4km",
        "user_need": "口碑优秀的高评分选择；距起点步行可达"
      },
      "selected": false
    },
    {
      "id": "403_14334",
      "name": "花海沐足养生SPA(钟楼店)",
      "lat": 34.259791,
      "lng": 108.951083,
      "category": "生活服务;洗浴推拿场所;洗浴推拿场所",
      "rating": 4.4,
      "price_per_person": 152.0,
      "address": "唐城大厦5层",
      "cluster_id": 403,
      "projection_ratio": 0.031,
      "perpendicular_km": 0.29,
      "recommendation_reasons": {
        "structured": "评分4.4 | 人均152元 | 洗浴推拿场所 | 距起点0.3km",
        "user_need": "口碑优秀的高评分选择；距起点步行可达"
      },
      "selected": false
    },
    {
      "id": "403_14573",
      "name": "唐小鲨·活虾现烤(西安总店)",
      "lat": 34.253784,
      "lng": 108.95086,
      "category": "餐饮服务;中餐厅;海鲜酒楼",
      "rating": 4.4,
      "price_per_person": 53.0,
      "address": "安居巷16号",
      "cluster_id": 403,
      "projection_ratio": 0.154,
      "perpendicular_km": 0.06,
      "recommendation_reasons": {
        "structured": "评分4.4 | 人均53元 | 海鲜酒楼 | 距起点0.7km",
        "user_need": "口碑优秀的高评分选择；在您的中等预算范围内；距起点很近"
      },
      "selected": false
    },
    {
      "id": "403_14578",
      "name": "夜猫子小黄鱼(骡马市店)",
      "lat": 34.256525,
      "lng": 108.951733,
      "category": "餐饮服务;餐饮相关场所;餐饮相关",
      "rating": 4.4,
      "price_per_person": 50.0,
      "address": "骡马市南柳巷25号1幢10124室",
      "cluster_id": 403,
      "projection_ratio": 0.104,
      "perpendicular_km": 0.23,
      "recommendation_reasons": {
        "structured": "评分4.4 | 人均50元 | 餐饮相关 | 距起点0.5km",
        "user_need": "口碑优秀的高评分选择；在您的中等预算范围内；距起点很近"
      },
      "selected": false
    },
    {
      "id": "403_14732",
      "name": "小竹签烤肉(北柳巷店)",
      "lat": 34.258744,
      "lng": 108.952123,
      "category": "餐饮服务;中餐厅;中餐厅",
      "rating": 4.4,
      "price_per_person": 67.0,
      "address": "东大街北柳巷(钟楼地铁站G1口步行130米)",
      "cluster_id": 403,
      "projection_ratio": 0.061,
      "perpendicular_km": 0.34,
      "recommendation_reasons": {
        "structured": "评分4.4 | 人均67元 | 中餐厅 | 距起点0.4km",
        "user_need": "口碑优秀的高评分选择；在您的中等预算范围内；距起点步行可达"
      },
      "selected": false
    },
    {
      "id": "403_14861",
      "name": "MOJAR(星地标店2店)",
      "lat": 34.257804,
      "lng": 108.951,
      "category": "餐饮服务;冷饮店;冷饮店",
      "rating": 4.4,
      "price_per_person": 78.0,
      "address": "骡马市商业街中区西安星地标娱乐MALL109-110铺位",
      "cluster_id": 403,
      "projection_ratio": 0.072,
      "perpendicular_km": 0.21,
      "recommendation_reasons": {
        "structured": "评分4.4 | 人均78元 | 冷饮店 | 距起点0.4km",
        "user_need": "口碑优秀的高评分选择；在您的中等预算范围内；距起点步行可达"
      },
      "selected": false
    },
    {
      "id": "406_6114",
      "name": "雅府正红木桶鱼",
      "lat": 34.259424,
      "lng": 108.981241,
      "category": "餐饮",
      "rating": 4.4,
      "price_per_person": 49.0,
      "address": "柿园路51号",
      "cluster_id": 406,
      "projection_ratio": 0.285,
      "perpendicular_km": 2.93,
      "recommendation_reasons": {
        "structured": "评分4.4 | 人均49元 | 餐饮 | 距起点3.1km",
        "user_need": "口碑优秀的高评分选择；在您的中等预算范围内；位于路线后半段"
      },
      "selected": false
    },
    {
      "id": "406_6283",
      "name": "兴庆宫公园-郁金香观赏区",
      "lat": 34.252252,
      "lng": 108.984918,
      "category": "景点",
      "rating": 4.4,
      "price_per_person": null,
      "address": "咸宁西路55号兴庆宫公园内(东南角)",
      "cluster_id": 406,
      "projection_ratio": 0.464,
      "perpendicular_km": 3.01,
      "recommendation_reasons": {
        "structured": "评分4.4 | 景点 | 距起点3.5km",
        "user_need": "完美匹配您的「景点打卡」需求；完美匹配您的「亲子友好」需求；口碑优秀的高评分选择"
      },
      "selected": false
    },
    {
      "id": "433_5801",
      "name": "清真·里木庭院串串",
      "lat": 34.260761,
      "lng": 108.935624,
      "category": "餐饮",
      "rating": 4.4,
      "price_per_person": 46.0,
      "address": "小学习东巷6号",
      "cluster_id": 433,
      "projection_ratio": 0.0,
      "perpendicular_km": 1.12,
      "recommendation_reasons": {
        "structured": "评分4.4 | 人均46元 | 餐饮 | 距起点1.1km",
        "user_need": "口碑优秀的高评分选择；在您的中等预算范围内；距起点很近"
      },
      "selected": false
    },
    {
      "id": "433_5812",
      "name": "清真尔都旋转火锅",
      "lat": 34.264697,
      "lng": 108.938806,
      "category": "餐饮",
      "rating": 4.4,
      "price_per_person": 38.0,
      "address": "北广济街与大皮院交叉口西北40米",
      "cluster_id": 433,
      "projection_ratio": 0.0,
      "perpendicular_km": 0.97,
      "recommendation_reasons": {
        "structured": "评分4.4 | 人均38元 | 餐饮 | 距起点1.0km",
        "user_need": "口碑优秀的高评分选择；在您的中等预算范围内；距起点很近"
      },
      "selected": false
    },
    {
      "id": "433_5816",
      "name": "瑞幸咖啡(北广济街店)",
      "lat": 34.262035,
      "lng": 108.939083,
      "category": "餐饮",
      "rating": 4.4,
      "price_per_person": 14.0,
      "address": "北广济街143号(广济街地铁站A1口步行370米)",
      "cluster_id": 433,
      "projection_ratio": 0.0,
      "perpendicular_km": 0.83,
      "recommendation_reasons": {
        "structured": "评分4.4 | 人均14元 | 餐饮 | 距起点0.8km",
        "user_need": "口碑优秀的高评分选择；距起点很近"
      },
      "selected": false
    },
    {
      "id": "514_7779",
      "name": "光秀G-showKTV(和生国际店)",
      "lat": 34.293301,
      "lng": 108.899098,
      "category": "休闲",
      "rating": 4.4,
      "price_per_person": 78.0,
      "address": "梨园路和生国际负1层",
      "cluster_id": 514,
      "projection_ratio": 0.0,
      "perpendicular_km": 5.81,
      "recommendation_reasons": {
        "structured": "评分4.4 | 人均78元 | 休闲 | 距起点5.8km",
        "user_need": "口碑优秀的高评分选择；在您的中等预算范围内；位于路线后半段"
      },
      "selected": false
    },
    {
      "id": "553_7843",
      "name": "幸运咖(盛龙广场店)",
      "lat": 34.30086,
      "lng": 108.946945,
      "category": "餐饮",
      "rating": 4.4,
      "price_per_person": 9.0,
      "address": "方新村115号广丰花园南侧第一家",
      "cluster_id": 553,
      "projection_ratio": 0.0,
      "perpendicular_km": 4.55,
      "recommendation_reasons": {
        "structured": "评分4.4 | 人均9元 | 餐饮 | 距起点4.5km",
        "user_need": "口碑优秀的高评分选择；位于路线后半段"
      },
      "selected": false
    },
    {
      "id": "553_7868",
      "name": "马启明老马小炒泡馍(风城南路分店)",
      "lat": 34.302417,
      "lng": 108.940642,
      "category": "餐饮",
      "rating": 4.4,
      "price_per_person": 44.0,
      "address": "凤城南路与萧家巷交叉口西40米",
      "cluster_id": 553,
      "projection_ratio": 0.0,
      "perpendicular_km": 4.76,
      "recommendation_reasons": {
        "structured": "评分4.4 | 人均44元 | 餐饮 | 距起点4.8km",
        "user_need": "口碑优秀的高评分选择；在您的中等预算范围内；位于路线后半段"
      },
      "selected": false
    },
    {
      "id": "553_14480",
      "name": "花生推理",
      "lat": 34.305225,
      "lng": 108.948675,
      "category": "体育休闲服务;娱乐场所;娱乐场所",
      "rating": 4.4,
      "price_per_person": 120.0,
      "address": "未央区西安花生推理剧社(大明宫店)",
      "cluster_id": 553,
      "projection_ratio": 0.0,
      "perpendicular_km": 5.03,
      "recommendation_reasons": {
        "structured": "评分4.4 | 人均120元 | 娱乐场所 | 距起点5.0km",
        "user_need": "口碑优秀的高评分选择；在您的中等预算范围内；位于路线后半段"
      },
      "selected": false
    },
    {
      "id": "187_2393",
      "name": "京遇·鲜货涮锅(西安荟聚店)",
      "lat": 34.172925,
      "lng": 108.901275,
      "category": "餐饮",
      "rating": 4.3,
      "price_per_person": 81.0,
      "address": "西安荟聚2楼",
      "cluster_id": 187,
      "projection_ratio": 1.0,
      "perpendicular_km": 7.67,
      "recommendation_reasons": {
        "structured": "评分4.3 | 人均81元 | 餐饮 | 距起点10.6km",
        "user_need": "口碑优秀的高评分选择；在您的中等预算范围内；位于路线后半段"
      },
      "selected": false
    },
    {
      "id": "187_2406",
      "name": "串士多回转小火锅(西安荟聚店)",
      "lat": 34.171963,
      "lng": 108.901444,
      "category": "餐饮",
      "rating": 4.3,
      "price_per_person": 65.0,
      "address": "西安荟聚",
      "cluster_id": 187,
      "projection_ratio": 1.0,
      "perpendicular_km": 7.73,
      "recommendation_reasons": {
        "structured": "评分4.3 | 人均65元 | 餐饮 | 距起点10.7km",
        "user_need": "口碑优秀的高评分选择；在您的中等预算范围内；位于路线后半段"
      },
      "selected": false
    },
    {
      "id": "189_2580",
      "name": "古城樊氏肉夹馍",
      "lat": 34.179227,
      "lng": 108.939486,
      "category": "餐饮",
      "rating": 4.3,
      "price_per_person": 15.0,
      "address": "省直机三爻小区D区南裙楼一层3号",
      "cluster_id": 189,
      "projection_ratio": 1.0,
      "perpendicular_km": 4.89,
      "recommendation_reasons": {
        "structured": "评分4.3 | 人均15元 | 餐饮 | 距起点9.0km",
        "user_need": "口碑优秀的高评分选择；位于路线后半段"
      },
      "selected": false
    },
    {
      "id": "193_2781",
      "name": "塔斯汀中国汉堡(西安市大华曲江樾境店)",
      "lat": 34.178968,
      "lng": 108.9827,
      "category": "餐饮",
      "rating": 4.3,
      "price_per_person": 19.0,
      "address": "大华公园世家6期14栋1单元10101室",
      "cluster_id": 193,
      "projection_ratio": 1.0,
      "perpendicular_km": 4.69,
      "recommendation_reasons": {
        "structured": "评分4.3 | 人均19元 | 餐饮 | 距起点9.6km",
        "user_need": "完美匹配您的「景点打卡」需求；口碑优秀的高评分选择；位于路线后半段"
      },
      "selected": false
    },
    {
      "id": "193_2784",
      "name": "飞鸿肉夹馍(曲江大华店)",
      "lat": 34.178886,
      "lng": 108.982784,
      "category": "餐饮",
      "rating": 4.3,
      "price_per_person": 18.0,
      "address": "公田二路与春临四十字东北角",
      "cluster_id": 193,
      "projection_ratio": 1.0,
      "perpendicular_km": 4.7,
      "recommendation_reasons": {
        "structured": "评分4.3 | 人均18元 | 餐饮 | 距起点9.6km",
        "user_need": "口碑优秀的高评分选择；位于路线后半段"
      },
      "selected": false
    },
    {
      "id": "193_2788",
      "name": "喜乐烤肉(大华樾境店)",
      "lat": 34.178725,
      "lng": 108.982925,
      "category": "餐饮",
      "rating": 4.3,
      "price_per_person": 67.0,
      "address": "曲江新区大华曲江樾境14号楼10106号商铺",
      "cluster_id": 193,
      "projection_ratio": 1.0,
      "perpendicular_km": 4.72,
      "recommendation_reasons": {
        "structured": "评分4.3 | 人均67元 | 餐饮 | 距起点9.6km",
        "user_need": "口碑优秀的高评分选择；在您的中等预算范围内；位于路线后半段"
      },
      "selected": false
    },
    {
      "id": "193_2890",
      "name": "旺圣烟酒超市(大华曲江公园世家3期店)",
      "lat": 34.1778,
      "lng": 108.983205,
      "category": "购物",
      "rating": 4.3,
      "price_per_person": null,
      "address": "曲江大华公园世家3期商业街",
      "cluster_id": 193,
      "projection_ratio": 1.0,
      "perpendicular_km": 4.82,
      "recommendation_reasons": {
        "structured": "评分4.3 | 购物 | 距起点9.7km",
        "user_need": "完美匹配您的「景点打卡」需求；完美匹配您的「亲子友好」需求；口碑优秀的高评分选择"
      },
      "selected": false
    },
    {
      "id": "193_2922",
      "name": "曲江大华社区公园",
      "lat": 34.17433,
      "lng": 108.985983,
      "category": "景点",
      "rating": 4.3,
      "price_per_person": null,
      "address": "航天大道与神舟大道交叉口东北260米",
      "cluster_id": 193,
      "projection_ratio": 1.0,
      "perpendicular_km": 5.28,
      "recommendation_reasons": {
        "structured": "评分4.3 | 景点 | 距起点10.2km",
        "user_need": "完美匹配您的「景点打卡」需求；完美匹配您的「亲子友好」需求；口碑优秀的高评分选择"
      },
      "selected": false
    },
    {
      "id": "196_2961",
      "name": "HAO自在城市围炉煮茶微露营基地",
      "lat": 34.178275,
      "lng": 109.023325,
      "category": "休闲",
      "rating": 4.3,
      "price_per_person": 170.0,
      "address": "雁翔路1号雅森皇家上林苑内四号院",
      "cluster_id": 196,
      "projection_ratio": 1.0,
      "perpendicular_km": 7.02,
      "recommendation_reasons": {
        "structured": "评分4.3 | 人均170元 | 休闲 | 距起点11.4km",
        "user_need": "口碑优秀的高评分选择；位于路线后半段"
      },
      "selected": false
    },
    {
      "id": "208_2491",
      "name": "三禾超市(富乐店)",
      "lat": 34.184841,
      "lng": 108.89471,
      "category": "购物",
      "rating": 4.3,
      "price_per_person": null,
      "address": "电子正街电子城街道西沣一路高家堡小区富乐广场11号楼1层10号商铺",
      "cluster_id": 208,
      "projection_ratio": 1.0,
      "perpendicular_km": 7.39,
      "recommendation_reasons": {
        "structured": "评分4.3 | 购物 | 距起点9.7km",
        "user_need": "口碑优秀的高评分选择；位于路线后半段"
      },
      "selected": false
    },
    {
      "id": "285_3771",
      "name": "luckin coffee 瑞幸咖啡(橡树星座店)",
      "lat": 34.216299,
      "lng": 108.892949,
      "category": "餐饮",
      "rating": 4.3,
      "price_per_person": 14.0,
      "address": "科技五路3号橡树星座东侧佰碗集美食城1层(美食城入口处)",
      "cluster_id": 285,
      "projection_ratio": 0.458,
      "perpendicular_km": 6.35,
      "recommendation_reasons": {
        "structured": "评分4.3 | 人均14元 | 餐饮 | 距起点7.0km",
        "user_need": "口碑优秀的高评分选择；位于路线后半段"
      },
      "selected": false
    },
    {
      "id": "285_3778",
      "name": "小满咖啡(天地源·枫林绿洲店)",
      "lat": 34.212603,
      "lng": 108.896232,
      "category": "餐饮",
      "rating": 4.3,
      "price_per_person": 27.0,
      "address": "丈八沟街道科技六路枫林绿洲E区步行街",
      "cluster_id": 285,
      "projection_ratio": 0.562,
      "perpendicular_km": 6.18,
      "recommendation_reasons": {
        "structured": "评分4.3 | 人均27元 | 餐饮 | 距起点7.1km",
        "user_need": "口碑优秀的高评分选择；位于路线后半段"
      },
      "selected": false
    },
    {
      "id": "285_3895",
      "name": "儒友乐自助棋牌木塔寺店",
      "lat": 34.213505,
      "lng": 108.89215,
      "category": "休闲",
      "rating": 4.3,
      "price_per_person": 12.0,
      "address": "尚品国际C幢27楼2701室",
      "cluster_id": 285,
      "projection_ratio": 0.51,
      "perpendicular_km": 6.51,
      "recommendation_reasons": {
        "structured": "评分4.3 | 人均12元 | 休闲 | 距起点7.3km",
        "user_need": "完美匹配您的「景点打卡」需求；口碑优秀的高评分选择；位于路线后半段"
      },
      "selected": false
    },
    {
      "id": "291_4094",
      "name": "西安曲江艺术博物馆",
      "lat": 34.214636,
      "lng": 108.963398,
      "category": "景点",
      "rating": 4.3,
      "price_per_person": null,
      "address": "慈恩路66号",
      "cluster_id": 291,
      "projection_ratio": 1.0,
      "perpendicular_km": 0.41,
      "recommendation_reasons": {
        "structured": "评分4.3 | 景点 | 距起点5.2km",
        "user_need": "完美匹配您的「景点打卡」需求；完美匹配您的「亲子友好」需求；口碑优秀的高评分选择"
      },
      "selected": false
    },
    {
      "id": "293_4322",
      "name": "悦芙蓉邻里集市",
      "lat": 34.212234,
      "lng": 108.985417,
      "category": "购物",
      "rating": 4.3,
      "price_per_person": null,
      "address": "芙蓉东路与北池头二路交叉口东南100米",
      "cluster_id": 293,
      "projection_ratio": 1.0,
      "perpendicular_km": 2.06,
      "recommendation_reasons": {
        "structured": "评分4.3 | 购物 | 距起点6.3km",
        "user_need": "口碑优秀的高评分选择；位于路线后半段"
      },
      "selected": false
    },
    {
      "id": "293_4435",
      "name": "佰年尚普(宽坐茶馆)",
      "lat": 34.218616,
      "lng": 108.98532,
      "category": "购物",
      "rating": 4.3,
      "price_per_person": null,
      "address": "曲江大道中海观园B区10113号商铺",
      "cluster_id": 293,
      "projection_ratio": 1.0,
      "perpendicular_km": 1.94,
      "recommendation_reasons": {
        "structured": "评分4.3 | 购物 | 距起点5.8km",
        "user_need": "口碑优秀的高评分选择；位于路线后半段"
      },
      "selected": false
    },
    {
      "id": "295_4530",
      "name": "十六街区草本串串(总店)",
      "lat": 34.214818,
      "lng": 109.008989,
      "category": "餐饮",
      "rating": 4.3,
      "price_per_person": 51.0,
      "address": "雁翔路和众城阅小区西门外",
      "cluster_id": 295,
      "projection_ratio": 1.0,
      "perpendicular_km": 4.14,
      "recommendation_reasons": {
        "structured": "评分4.3 | 人均51元 | 餐饮 | 距起点7.5km",
        "user_need": "口碑优秀的高评分选择；在您的中等预算范围内；位于路线后半段"
      },
      "selected": false
    },
    {
      "id": "295_4562",
      "name": "库迪咖啡(曲江安居生活荟店)",
      "lat": 34.213639,
      "lng": 109.008806,
      "category": "餐饮",
      "rating": 4.3,
      "price_per_person": 9.0,
      "address": "雁翔路与龙游南路交叉口西80米",
      "cluster_id": 295,
      "projection_ratio": 1.0,
      "perpendicular_km": 4.13,
      "recommendation_reasons": {
        "structured": "评分4.3 | 人均9元 | 餐饮 | 距起点7.6km",
        "user_need": "口碑优秀的高评分选择；位于路线后半段"
      },
      "selected": false
    },
    {
      "id": "295_4567",
      "name": "瑞幸咖啡(西安交大科技园博源科技广场C座店)",
      "lat": 34.218097,
      "lng": 109.003511,
      "category": "餐饮",
      "rating": 4.3,
      "price_per_person": 16.0,
      "address": "雁翔路99号交大科技博源科技广场-创新大厦F1层",
      "cluster_id": 295,
      "projection_ratio": 1.0,
      "perpendicular_km": 3.62,
      "recommendation_reasons": {
        "structured": "评分4.3 | 人均16元 | 餐饮 | 距起点6.9km",
        "user_need": "口碑优秀的高评分选择；位于路线后半段"
      },
      "selected": false
    },
    {
      "id": "295_4661",
      "name": "客里麻茶棋牌室(理工大曲江地铁口店)",
      "lat": 34.217073,
      "lng": 109.002354,
      "category": "休闲",
      "rating": 4.3,
      "price_per_person": 28.0,
      "address": "汉华曲江中心T1号楼8层813室",
      "cluster_id": 295,
      "projection_ratio": 1.0,
      "perpendicular_km": 3.51,
      "recommendation_reasons": {
        "structured": "评分4.3 | 人均28元 | 休闲 | 距起点6.9km",
        "user_need": "口碑优秀的高评分选择；位于路线后半段"
      },
      "selected": false
    },
    {
      "id": "295_14842",
      "name": "蜜雪冰城(黄渠头小区店)",
      "lat": 34.211415,
      "lng": 109.007512,
      "category": "餐饮服务;餐饮相关场所;餐饮相关",
      "rating": 4.3,
      "price_per_person": 11.0,
      "address": "黄渠头小区北门口5-72号商铺",
      "cluster_id": 295,
      "projection_ratio": 1.0,
      "perpendicular_km": 4.06,
      "recommendation_reasons": {
        "structured": "评分4.3 | 人均11元 | 餐饮相关 | 距起点7.7km",
        "user_need": "口碑优秀的高评分选择；位于路线后半段"
      },
      "selected": false
    },
    {
      "id": "403_14338",
      "name": "大唐印象足道SPA影院(骡马市店)",
      "lat": 34.257125,
      "lng": 108.950075,
      "category": "生活服务;洗浴推拿场所;洗浴推拿场所",
      "rating": 4.3,
      "price_per_person": 162.0,
      "address": "骡马市12号万方大厦F2层",
      "cluster_id": 403,
      "projection_ratio": 0.078,
      "perpendicular_km": 0.11,
      "recommendation_reasons": {
        "structured": "评分4.3 | 人均162元 | 洗浴推拿场所 | 距起点0.4km",
        "user_need": "口碑优秀的高评分选择；距起点步行可达"
      },
      "selected": false
    },
    {
      "id": "403_14570",
      "name": "567大连海鲜(钟楼店)",
      "lat": 34.256545,
      "lng": 108.95377,
      "category": "餐饮服务;中餐厅;海鲜酒楼",
      "rating": 4.3,
      "price_per_person": 65.0,
      "address": "钟楼书店南230米(云龙大厦南130米)",
      "cluster_id": 403,
      "projection_ratio": 0.12,
      "perpendicular_km": 0.41,
      "recommendation_reasons": {
        "structured": "评分4.3 | 人均65元 | 海鲜酒楼 | 距起点0.7km",
        "user_need": "口碑优秀的高评分选择；在您的中等预算范围内；距起点很近"
      },
      "selected": false
    },
    {
      "id": "403_14575",
      "name": "花宝街石锅鸡公煲(陕西西安碑林区东木头市店)",
      "lat": 34.255825,
      "lng": 108.950075,
      "category": "餐饮服务;中餐厅;四川菜(川菜)",
      "rating": 4.3,
      "price_per_person": 20.0,
      "address": "东木头市124号从东到西第8间",
      "cluster_id": 403,
      "projection_ratio": 0.105,
      "perpendicular_km": 0.06,
      "recommendation_reasons": {
        "structured": "评分4.3 | 人均20元 | 四川菜(川菜) | 距起点0.5km",
        "user_need": "口碑优秀的高评分选择；距起点很近"
      },
      "selected": false
    },
    {
      "id": "406_6111",
      "name": "大后生内蒙烧麦(柿园路店)",
      "lat": 34.259429,
      "lng": 108.98101,
      "category": "餐饮",
      "rating": 4.3,
      "price_per_person": 22.0,
      "address": "长乐坊街道柿园路51号104商铺",
      "cluster_id": 406,
      "projection_ratio": 0.283,
      "perpendicular_km": 2.91,
      "recommendation_reasons": {
        "structured": "评分4.3 | 人均22元 | 餐饮 | 距起点3.1km",
        "user_need": "口碑优秀的高评分选择；位于路线后半段"
      },
      "selected": false
    },
    {
      "id": "406_6159",
      "name": "德樂Cafe",
      "lat": 34.254825,
      "lng": 108.981525,
      "category": "餐饮",
      "rating": 4.3,
      "price_per_person": 31.0,
      "address": "兴庆公园西门里大象滑梯对面",
      "cluster_id": 406,
      "projection_ratio": 0.383,
      "perpendicular_km": 2.8,
      "recommendation_reasons": {
        "structured": "评分4.3 | 人均31元 | 餐饮 | 距起点3.2km",
        "user_need": "口碑优秀的高评分选择；在您的中等预算范围内；位于路线后半段"
      },
      "selected": false
    },
    {
      "id": "433_5795",
      "name": "御龙旋转火锅",
      "lat": 34.260096,
      "lng": 108.936265,
      "category": "餐饮",
      "rating": 4.3,
      "price_per_person": 35.0,
      "address": "大学习巷4号(广济街地铁站A1口步行230米)",
      "cluster_id": 433,
      "projection_ratio": 0.0,
      "perpendicular_km": 1.05,
      "recommendation_reasons": {
        "structured": "评分4.3 | 人均35元 | 餐饮 | 距起点1.1km",
        "user_need": "口碑优秀的高评分选择；在您的中等预算范围内；距起点很近"
      },
      "selected": false
    },
    {
      "id": "433_5827",
      "name": "FUN COFFEE·自烘焙咖啡",
      "lat": 34.261039,
      "lng": 108.93621,
      "category": "餐饮",
      "rating": 4.3,
      "price_per_person": 26.0,
      "address": "西大街大学习巷58号(广济街地铁站A1口步行340米)",
      "cluster_id": 433,
      "projection_ratio": 0.0,
      "perpendicular_km": 1.07,
      "recommendation_reasons": {
        "structured": "评分4.3 | 人均26元 | 餐饮 | 距起点1.1km",
        "user_need": "口碑优秀的高评分选择；距起点很近"
      },
      "selected": false
    },
    {
      "id": "514_7634",
      "name": "三矿同心串串(和生国际店)",
      "lat": 34.293261,
      "lng": 108.897926,
      "category": "其他",
      "rating": 4.3,
      "price_per_person": null,
      "address": "和生国际",
      "cluster_id": 514,
      "projection_ratio": 0.0,
      "perpendicular_km": 5.89,
      "recommendation_reasons": {
        "structured": "评分4.3 | 其他 | 距起点5.9km",
        "user_need": "口碑优秀的高评分选择；位于路线后半段"
      },
      "selected": false
    },
    {
      "id": "514_7649",
      "name": "鸭掌门特色火锅(梨园路店)",
      "lat": 34.292007,
      "lng": 108.897137,
      "category": "餐饮",
      "rating": 4.3,
      "price_per_person": 46.0,
      "address": "梨园路合生国际对面维也纳酒店南侧30米二楼",
      "cluster_id": 514,
      "projection_ratio": 0.0,
      "perpendicular_km": 5.86,
      "recommendation_reasons": {
        "structured": "评分4.3 | 人均46元 | 餐饮 | 距起点5.9km",
        "user_need": "口碑优秀的高评分选择；在您的中等预算范围内；位于路线后半段"
      },
      "selected": false
    },
    {
      "id": "514_7657",
      "name": "瑞幸咖啡(和生国际店)",
      "lat": 34.293025,
      "lng": 108.898125,
      "category": "餐饮",
      "rating": 4.3,
      "price_per_person": 14.0,
      "address": "梨园路合生国际商品交易中心负一层F70136号",
      "cluster_id": 514,
      "projection_ratio": 0.0,
      "perpendicular_km": 5.86,
      "recommendation_reasons": {
        "structured": "评分4.3 | 人均14元 | 餐饮 | 距起点5.9km",
        "user_need": "口碑优秀的高评分选择；位于路线后半段"
      },
      "selected": false
    },
    {
      "id": "514_7682",
      "name": "关中老面堂(德方·青年公馆店)",
      "lat": 34.293163,
      "lng": 108.89978,
      "category": "餐饮",
      "rating": 4.3,
      "price_per_person": 14.0,
      "address": "和生国际4号门东240米",
      "cluster_id": 514,
      "projection_ratio": 0.0,
      "perpendicular_km": 5.75,
      "recommendation_reasons": {
        "structured": "评分4.3 | 人均14元 | 餐饮 | 距起点5.7km",
        "user_need": "口碑优秀的高评分选择；位于路线后半段"
      },
      "selected": false
    },
    {
      "id": "514_7733",
      "name": "三禾超市(梨园路店)",
      "lat": 34.293353,
      "lng": 108.89825,
      "category": "购物",
      "rating": 4.3,
      "price_per_person": null,
      "address": "和生国际",
      "cluster_id": 514,
      "projection_ratio": 0.0,
      "perpendicular_km": 5.87,
      "recommendation_reasons": {
        "structured": "评分4.3 | 购物 | 距起点5.9km",
        "user_need": "口碑优秀的高评分选择；位于路线后半段"
      },
      "selected": false
    },
    {
      "id": "553_7836",
      "name": "刘记新派火锅鸡(未央店)",
      "lat": 34.306252,
      "lng": 108.943384,
      "category": "其他",
      "rating": 4.3,
      "price_per_person": 48.0,
      "address": "名京九合院绵荟苑10118",
      "cluster_id": 553,
      "projection_ratio": 0.0,
      "perpendicular_km": 5.16,
      "recommendation_reasons": {
        "structured": "评分4.3 | 人均48元 | 其他 | 距起点5.2km",
        "user_need": "口碑优秀的高评分选择；在您的中等预算范围内；位于路线后半段"
      },
      "selected": false
    },
    {
      "id": "553_7848",
      "name": "Noja花园咖啡",
      "lat": 34.304593,
      "lng": 108.946764,
      "category": "餐饮",
      "rating": 4.3,
      "price_per_person": 18.0,
      "address": "大明宫西地铁站B口未央城建一楼东侧",
      "cluster_id": 553,
      "projection_ratio": 0.0,
      "perpendicular_km": 4.96,
      "recommendation_reasons": {
        "structured": "评分4.3 | 人均18元 | 餐饮 | 距起点5.0km",
        "user_need": "口碑优秀的高评分选择；位于路线后半段"
      },
      "selected": false
    },
    {
      "id": "553_7991",
      "name": "迷雾·沉浸式恐怖剧场",
      "lat": 34.300356,
      "lng": 108.945566,
      "category": "休闲",
      "rating": 4.3,
      "price_per_person": 244.0,
      "address": "未央路80号盛龙家居生活Mall负一层F8099-F8105",
      "cluster_id": 553,
      "projection_ratio": 0.0,
      "perpendicular_km": 4.5,
      "recommendation_reasons": {
        "structured": "评分4.3 | 人均244元 | 休闲 | 距起点4.5km",
        "user_need": "口碑优秀的高评分选择；位于路线后半段"
      },
      "selected": false
    },
    {
      "id": "187_2392",
      "name": "尽膳口福跷脚牛肉火锅(西安荟聚店)",
      "lat": 34.172918,
      "lng": 108.90087,
      "category": "餐饮",
      "rating": 4.2,
      "price_per_person": 139.0,
      "address": "西安荟聚",
      "cluster_id": 187,
      "projection_ratio": 1.0,
      "perpendicular_km": 7.7,
      "recommendation_reasons": {
        "structured": "评分4.2 | 人均139元 | 餐饮 | 距起点10.6km",
        "user_need": "口碑优秀的高评分选择；在您的中等预算范围内；位于路线后半段"
      },
      "selected": false
    },
    {
      "id": "187_2509",
      "name": "雁南大草坪爆笑乐园",
      "lat": 34.176943,
      "lng": 108.901,
      "category": "景点",
      "rating": 4.2,
      "price_per_person": null,
      "address": "雁环中路19号",
      "cluster_id": 187,
      "projection_ratio": 1.0,
      "perpendicular_km": 7.41,
      "recommendation_reasons": {
        "structured": "评分4.2 | 景点 | 距起点10.2km",
        "user_need": "完美匹配您的「景点打卡」需求；口碑优秀的高评分选择；位于路线后半段"
      },
      "selected": false
    },
    {
      "id": "187_2510",
      "name": "雁南公园1期",
      "lat": 34.176883,
      "lng": 108.901286,
      "category": "景点",
      "rating": 4.2,
      "price_per_person": null,
      "address": "雁环中路",
      "cluster_id": 187,
      "projection_ratio": 1.0,
      "perpendicular_km": 7.39,
      "recommendation_reasons": {
        "structured": "评分4.2 | 景点 | 距起点10.2km",
        "user_need": "完美匹配您的「景点打卡」需求；完美匹配您的「亲子友好」需求；口碑优秀的高评分选择"
      },
      "selected": false
    },
    {
      "id": "187_2542",
      "name": "好玩星球(西安荟聚店)",
      "lat": 34.172855,
      "lng": 108.901611,
      "category": "休闲",
      "rating": 4.2,
      "price_per_person": 141.0,
      "address": "西安荟聚L2层02D024号",
      "cluster_id": 187,
      "projection_ratio": 1.0,
      "perpendicular_km": 7.65,
      "recommendation_reasons": {
        "structured": "评分4.2 | 人均141元 | 休闲 | 距起点10.6km",
        "user_need": "口碑优秀的高评分选择；在您的中等预算范围内；位于路线后半段"
      },
      "selected": false
    },
    {
      "id": "193_2782",
      "name": "鑫盛斋泡馍(大华·曲江樾境店)",
      "lat": 34.178961,
      "lng": 108.982732,
      "category": "餐饮",
      "rating": 4.2,
      "price_per_person": 45.0,
      "address": "大华·曲江樾境西门南200米",
      "cluster_id": 193,
      "projection_ratio": 1.0,
      "perpendicular_km": 4.69,
      "recommendation_reasons": {
        "structured": "评分4.2 | 人均45元 | 餐饮 | 距起点9.6km",
        "user_need": "口碑优秀的高评分选择；在您的中等预算范围内；位于路线后半段"
      },
      "selected": false
    },
    {
      "id": "193_2786",
      "name": "S-pizza披萨速递(金浮沱店)",
      "lat": 34.177675,
      "lng": 108.981625,
      "category": "餐饮",
      "rating": 4.2,
      "price_per_person": 23.0,
      "address": "曲江新区大华公园世家5期3号楼1单元F204商铺(中国体育彩票旁边)",
      "cluster_id": 193,
      "projection_ratio": 1.0,
      "perpendicular_km": 4.79,
      "recommendation_reasons": {
        "structured": "评分4.2 | 人均23元 | 餐饮 | 距起点9.7km",
        "user_need": "口碑优秀的高评分选择；位于路线后半段"
      },
      "selected": false
    },
    {
      "id": "208_2436",
      "name": "秦老道烧烤",
      "lat": 34.182089,
      "lng": 108.894556,
      "category": "餐饮",
      "rating": 4.2,
      "price_per_person": 20.0,
      "address": "高家堡南门旁",
      "cluster_id": 208,
      "projection_ratio": 1.0,
      "perpendicular_km": 7.56,
      "recommendation_reasons": {
        "structured": "评分4.2 | 人均20元 | 餐饮 | 距起点9.9km",
        "user_need": "口碑优秀的高评分选择；位于路线后半段"
      },
      "selected": false
    },
    {
      "id": "285_3777",
      "name": "StandingCafe(旺座现代城F座店)",
      "lat": 34.215556,
      "lng": 108.89207,
      "category": "餐饮",
      "rating": 4.2,
      "price_per_person": 32.0,
      "address": "丈八沟街道唐延路旺座现代城F座101",
      "cluster_id": 285,
      "projection_ratio": 0.466,
      "perpendicular_km": 6.45,
      "recommendation_reasons": {
        "structured": "评分4.2 | 人均32元 | 餐饮 | 距起点7.1km",
        "user_need": "口碑优秀的高评分选择；在您的中等预算范围内；位于路线后半段"
      },
      "selected": false
    },
    {
      "id": "285_3808",
      "name": "饕客",
      "lat": 34.219741,
      "lng": 108.893335,
      "category": "购物",
      "rating": 4.2,
      "price_per_person": null,
      "address": "高新一路万科金域国际企业总部大厦",
      "cluster_id": 285,
      "projection_ratio": 0.39,
      "perpendicular_km": 6.19,
      "recommendation_reasons": {
        "structured": "评分4.2 | 购物 | 距起点6.7km",
        "user_need": "口碑优秀的高评分选择；位于路线后半段"
      },
      "selected": false
    },
    {
      "id": "293_4236",
      "name": "奔跑吧擀面皮",
      "lat": 34.217449,
      "lng": 108.981199,
      "category": "餐饮",
      "rating": 4.2,
      "price_per_person": 16.0,
      "address": "曲江路394号中海·熙岸",
      "cluster_id": 293,
      "projection_ratio": 1.0,
      "perpendicular_km": 1.57,
      "recommendation_reasons": {
        "structured": "评分4.2 | 人均16元 | 餐饮 | 距起点5.6km",
        "user_need": "口碑优秀的高评分选择；位于路线后半段"
      },
      "selected": false
    },
    {
      "id": "293_4274",
      "name": "延安姐妹小沾沾(北池头店)",
      "lat": 34.219694,
      "lng": 108.988993,
      "category": "餐饮",
      "rating": 4.2,
      "price_per_person": 64.0,
      "address": "北池头社区商铺64号",
      "cluster_id": 293,
      "projection_ratio": 1.0,
      "perpendicular_km": 2.29,
      "recommendation_reasons": {
        "structured": "评分4.2 | 人均64元 | 餐饮 | 距起点5.9km",
        "user_need": "口碑优秀的高评分选择；在您的中等预算范围内；位于路线后半段"
      },
      "selected": false
    },
    {
      "id": "295_4542",
      "name": "麻迷儿嫂子砂锅涮牛肚(黄渠头店)",
      "lat": 34.211532,
      "lng": 109.007535,
      "category": "餐饮",
      "rating": 4.2,
      "price_per_person": 41.0,
      "address": "黄渠头小区北门口商铺5-7-1",
      "cluster_id": 295,
      "projection_ratio": 1.0,
      "perpendicular_km": 4.05,
      "recommendation_reasons": {
        "structured": "评分4.2 | 人均41元 | 餐饮 | 距起点7.7km",
        "user_need": "口碑优秀的高评分选择；在您的中等预算范围内；位于路线后半段"
      },
      "selected": false
    },
    {
      "id": "295_4565",
      "name": "瑞幸咖啡",
      "lat": 34.211794,
      "lng": 109.007954,
      "category": "餐饮",
      "rating": 4.2,
      "price_per_person": 13.0,
      "address": "黄渠头小区西北门旁",
      "cluster_id": 295,
      "projection_ratio": 1.0,
      "perpendicular_km": 4.09,
      "recommendation_reasons": {
        "structured": "评分4.2 | 人均13元 | 餐饮 | 距起点7.7km",
        "user_need": "口碑优秀的高评分选择；位于路线后半段"
      },
      "selected": false
    },
    {
      "id": "295_4652",
      "name": "锦铭台球棋牌馆",
      "lat": 34.214575,
      "lng": 109.009175,
      "category": "休闲",
      "rating": 4.2,
      "price_per_person": null,
      "address": "雁翔路与黄渠头一路向南100米路东和众曲江城阅西门口",
      "cluster_id": 295,
      "projection_ratio": 1.0,
      "perpendicular_km": 4.16,
      "recommendation_reasons": {
        "structured": "评分4.2 | 休闲 | 距起点7.6km",
        "user_need": "口碑优秀的高评分选择；位于路线后半段"
      },
      "selected": false
    },
    {
      "id": "403_5938",
      "name": "环城公园(文艺北路)",
      "lat": 34.251824,
      "lng": 108.950887,
      "category": "景点",
      "rating": 4.2,
      "price_per_person": null,
      "address": "南大街2号西安城墙内(南侧)",
      "cluster_id": 403,
      "projection_ratio": 0.195,
      "perpendicular_km": 0.01,
      "recommendation_reasons": {
        "structured": "评分4.2 | 景点 | 距起点0.9km",
        "user_need": "完美匹配您的「景点打卡」需求；完美匹配您的「亲子友好」需求；口碑优秀的高评分选择"
      },
      "selected": false
    },
    {
      "id": "403_5959",
      "name": "灰色博物馆",
      "lat": 34.258026,
      "lng": 108.951136,
      "category": "景点",
      "rating": 4.2,
      "price_per_person": null,
      "address": "东大街骡马市1号星悦MALLF6层",
      "cluster_id": 403,
      "projection_ratio": 0.068,
      "perpendicular_km": 0.23,
      "recommendation_reasons": {
        "structured": "评分4.2 | 景点 | 距起点0.4km",
        "user_need": "完美匹配您的「景点打卡」需求；完美匹配您的「亲子友好」需求；口碑优秀的高评分选择"
      },
      "selected": false
    },
    {
      "id": "403_5967",
      "name": "西安非物质文化遗产博物馆",
      "lat": 34.250514,
      "lng": 108.954428,
      "category": "景点",
      "rating": 4.2,
      "price_per_person": null,
      "address": "文艺北路197号",
      "cluster_id": 403,
      "projection_ratio": 0.251,
      "perpendicular_km": 0.26,
      "recommendation_reasons": {
        "structured": "评分4.2 | 景点 | 距起点1.2km",
        "user_need": "完美匹配您的「景点打卡」需求；完美匹配您的「亲子友好」需求；口碑优秀的高评分选择"
      },
      "selected": false
    },
    {
      "id": "403_6069",
      "name": "方寸山艺术馆",
      "lat": 34.252118,
      "lng": 108.951071,
      "category": "文化",
      "rating": 4.2,
      "price_per_person": null,
      "address": "顺城南路中段21号(顺城巷)",
      "cluster_id": 403,
      "projection_ratio": 0.19,
      "perpendicular_km": 0.02,
      "recommendation_reasons": {
        "structured": "评分4.2 | 文化 | 距起点0.9km",
        "user_need": "口碑优秀的高评分选择；距起点很近"
      },
      "selected": false
    },
    {
      "id": "403_14490",
      "name": "鹏祖料理",
      "lat": 34.2576,
      "lng": 108.952283,
      "category": "餐饮服务;外国餐厅;日本料理",
      "rating": 4.2,
      "price_per_person": 77.0,
      "address": "中柳巷11号(钟楼地铁站G1口步行220米)",
      "cluster_id": 403,
      "projection_ratio": 0.086,
      "perpendicular_km": 0.32,
      "recommendation_reasons": {
        "structured": "评分4.2 | 人均77元 | 日本料理 | 距起点0.5km",
        "user_need": "口碑优秀的高评分选择；在您的中等预算范围内；距起点步行可达"
      },
      "selected": false
    },
    {
      "id": "403_14820",
      "name": "巧可梦巧克力·Gelato冰淇淋(西安钟楼店)",
      "lat": 34.25738,
      "lng": 108.952631,
      "category": "餐饮服务;休闲餐饮场所;休闲餐饮场所",
      "rating": 4.2,
      "price_per_person": 33.0,
      "address": "中柳巷3号院1单元1楼巧可梦",
      "cluster_id": 403,
      "projection_ratio": 0.094,
      "perpendicular_km": 0.34,
      "recommendation_reasons": {
        "structured": "评分4.2 | 人均33元 | 休闲餐饮场所 | 距起点0.5km",
        "user_need": "口碑优秀的高评分选择；在您的中等预算范围内；距起点很近"
      },
      "selected": false
    },
    {
      "id": "406_6156",
      "name": "生命浓度coffee",
      "lat": 34.259841,
      "lng": 108.985871,
      "category": "餐饮",
      "rating": 4.2,
      "price_per_person": 29.0,
      "address": "东关南街街道柿园路1号铁建东来国际临街底商2-115",
      "cluster_id": 406,
      "projection_ratio": 0.314,
      "perpendicular_km": 3.36,
      "recommendation_reasons": {
        "structured": "评分4.2 | 人均29元 | 餐饮 | 距起点3.5km",
        "user_need": "口碑优秀的高评分选择；位于路线后半段"
      },
      "selected": false
    },
    {
      "id": "406_6225",
      "name": "中国电信(柿园路营业厅)",
      "lat": 34.259511,
      "lng": 108.981751,
      "category": "其他",
      "rating": 4.2,
      "price_per_person": null,
      "address": "柿园路129号中国电信自营厅",
      "cluster_id": 406,
      "projection_ratio": 0.287,
      "perpendicular_km": 2.98,
      "recommendation_reasons": {
        "structured": "评分4.2 | 其他 | 距起点3.1km",
        "user_need": "口碑优秀的高评分选择；位于路线后半段"
      },
      "selected": false
    },
    {
      "id": "433_5777",
      "name": "老孙家泡馍(时代盛典店)",
      "lat": 34.260892,
      "lng": 108.939133,
      "category": "餐饮",
      "rating": 4.2,
      "price_per_person": 32.0,
      "address": "北广济街81号(广济街地铁站A1口步行240米)",
      "cluster_id": 433,
      "projection_ratio": 0.0,
      "perpendicular_km": 0.8,
      "recommendation_reasons": {
        "structured": "评分4.2 | 人均32元 | 餐饮 | 距起点0.8km",
        "user_need": "口碑优秀的高评分选择；在您的中等预算范围内；距起点很近"
      },
      "selected": false
    },
    {
      "id": "433_5780",
      "name": "老米家泡馍(回民街店)",
      "lat": 34.2612,
      "lng": 108.939188,
      "category": "餐饮",
      "rating": 4.2,
      "price_per_person": 33.0,
      "address": "北广济街84号(广济街地铁站A1口步行270米)",
      "cluster_id": 433,
      "projection_ratio": 0.0,
      "perpendicular_km": 0.8,
      "recommendation_reasons": {
        "structured": "评分4.2 | 人均33元 | 餐饮 | 距起点0.8km",
        "user_need": "口碑优秀的高评分选择；在您的中等预算范围内；距起点很近"
      },
      "selected": false
    },
    {
      "id": "433_5785",
      "name": "真斋老米家泡馍(回坊刚子)",
      "lat": 34.261229,
      "lng": 108.938965,
      "category": "餐饮",
      "rating": 4.2,
      "price_per_person": 24.0,
      "address": "北广济街80号清真寺对面",
      "cluster_id": 433,
      "projection_ratio": 0.0,
      "perpendicular_km": 0.82,
      "recommendation_reasons": {
        "structured": "评分4.2 | 人均24元 | 餐饮 | 距起点0.8km",
        "user_need": "口碑优秀的高评分选择；距起点很近"
      },
      "selected": false
    },
    {
      "id": "433_5799",
      "name": "学习巷串串",
      "lat": 34.261525,
      "lng": 108.936225,
      "category": "餐饮",
      "rating": 4.2,
      "price_per_person": 16.0,
      "address": "大学习巷清真寺门口80号",
      "cluster_id": 433,
      "projection_ratio": 0.0,
      "perpendicular_km": 1.07,
      "recommendation_reasons": {
        "structured": "评分4.2 | 人均16元 | 餐饮 | 距起点1.1km",
        "user_need": "口碑优秀的高评分选择；距起点很近"
      },
      "selected": false
    },
    {
      "id": "433_5844",
      "name": "回民小吃",
      "lat": 34.260852,
      "lng": 108.939142,
      "category": "餐饮",
      "rating": 4.2,
      "price_per_person": 14.0,
      "address": "北广济街与化觉巷交叉口南140米",
      "cluster_id": 433,
      "projection_ratio": 0.0,
      "perpendicular_km": 0.8,
      "recommendation_reasons": {
        "structured": "评分4.2 | 人均14元 | 餐饮 | 距起点0.8km",
        "user_need": "口碑优秀的高评分选择；距起点很近"
      },
      "selected": false
    },
    {
      "id": "514_7631",
      "name": "众哥老火锅(和生国际店)",
      "lat": 34.29328,
      "lng": 108.899185,
      "category": "餐饮",
      "rating": 4.2,
      "price_per_person": 66.0,
      "address": "梨园路和生国际一层1-50407-Z01",
      "cluster_id": 514,
      "projection_ratio": 0.0,
      "perpendicular_km": 5.8,
      "recommendation_reasons": {
        "structured": "评分4.2 | 人均66元 | 餐饮 | 距起点5.8km",
        "user_need": "口碑优秀的高评分选择；在您的中等预算范围内；位于路线后半段"
      },
      "selected": false
    },
    {
      "id": "514_7642",
      "name": "闽泉牛肉养生火锅(天朗·大兴郡悦城店)",
      "lat": 34.292382,
      "lng": 108.898689,
      "category": "餐饮",
      "rating": 4.2,
      "price_per_person": 61.0,
      "address": "大兴东路北侧1幢20103室商铺",
      "cluster_id": 514,
      "projection_ratio": 0.0,
      "perpendicular_km": 5.77,
      "recommendation_reasons": {
        "structured": "评分4.2 | 人均61元 | 餐饮 | 距起点5.8km",
        "user_need": "口碑优秀的高评分选择；在您的中等预算范围内；位于路线后半段"
      },
      "selected": false
    },
    {
      "id": "514_7722",
      "name": "萱轩便利店",
      "lat": 34.294173,
      "lng": 108.899803,
      "category": "购物",
      "rating": 4.2,
      "price_per_person": null,
      "address": "二环北路西段辅路与二环北路交叉口南200米",
      "cluster_id": 514,
      "projection_ratio": 0.0,
      "perpendicular_km": 5.82,
      "recommendation_reasons": {
        "structured": "评分4.2 | 购物 | 距起点5.8km",
        "user_need": "口碑优秀的高评分选择；位于路线后半段"
      },
      "selected": false
    },
    {
      "id": "553_7850",
      "name": "幸运咖(名京九合院店)",
      "lat": 34.306897,
      "lng": 108.943208,
      "category": "餐饮",
      "rating": 4.2,
      "price_per_person": 10.0,
      "address": "名京九合院110号",
      "cluster_id": 553,
      "projection_ratio": 0.0,
      "perpendicular_km": 5.23,
      "recommendation_reasons": {
        "structured": "评分4.2 | 人均10元 | 餐饮 | 距起点5.2km",
        "user_need": "口碑优秀的高评分选择；位于路线后半段"
      },
      "selected": false
    },
    {
      "id": "553_7866",
      "name": "富平蒸饺(凤城南路店)",
      "lat": 34.302098,
      "lng": 108.941471,
      "category": "餐饮",
      "rating": 4.2,
      "price_per_person": 35.0,
      "address": "风城南路汉庭酒店对面",
      "cluster_id": 553,
      "projection_ratio": 0.0,
      "perpendicular_km": 4.72,
      "recommendation_reasons": {
        "structured": "评分4.2 | 人均35元 | 餐饮 | 距起点4.7km",
        "user_need": "口碑优秀的高评分选择；在您的中等预算范围内；位于路线后半段"
      },
      "selected": false
    },
    {
      "id": "553_7871",
      "name": "沁味居粉汤羊血(萧家巷)",
      "lat": 34.302524,
      "lng": 108.94104,
      "category": "餐饮",
      "rating": 4.2,
      "price_per_person": 18.0,
      "address": "未央区红十字会西门旁",
      "cluster_id": 553,
      "projection_ratio": 0.0,
      "perpendicular_km": 4.77,
      "recommendation_reasons": {
        "structured": "评分4.2 | 人均18元 | 餐饮 | 距起点4.8km",
        "user_need": "口碑优秀的高评分选择；位于路线后半段"
      },
      "selected": false
    },
    {
      "id": "553_7901",
      "name": "零点生活超市(盛龙广场4号地块店)",
      "lat": 34.300004,
      "lng": 108.942011,
      "category": "购物",
      "rating": 4.2,
      "price_per_person": null,
      "address": "方新路25号盛龙广场4号地块",
      "cluster_id": 553,
      "projection_ratio": 0.0,
      "perpendicular_km": 4.48,
      "recommendation_reasons": {
        "structured": "评分4.2 | 购物 | 距起点4.5km",
        "user_need": "口碑优秀的高评分选择；位于路线后半段"
      },
      "selected": false
    },
    {
      "id": "561_8234",
      "name": "万家和购物广场(李家堡店)",
      "lat": 34.300775,
      "lng": 109.026382,
      "category": "购物",
      "rating": 4.2,
      "price_per_person": null,
      "address": "米秦北路李家堡商业楼B座1楼",
      "cluster_id": 561,
      "projection_ratio": 0.0,
      "perpendicular_km": 8.53,
      "recommendation_reasons": {
        "structured": "评分4.2 | 购物 | 距起点8.5km",
        "user_need": "口碑优秀的高评分选择；位于路线后半段"
      },
      "selected": false
    },
    {
      "id": "561_8285",
      "name": "赵一鸣省钱超市(陕西西安青青家园店)",
      "lat": 34.301419,
      "lng": 109.023594,
      "category": "购物",
      "rating": 4.2,
      "price_per_person": null,
      "address": "青青家园41号楼30102号商铺",
      "cluster_id": 561,
      "projection_ratio": 0.0,
      "perpendicular_km": 8.36,
      "recommendation_reasons": {
        "structured": "评分4.2 | 购物 | 距起点8.4km",
        "user_need": "口碑优秀的高评分选择；位于路线后半段"
      },
      "selected": false
    },
    {
      "id": "561_8318",
      "name": "云中雀(中海·尚城自助棋牌店)",
      "lat": 34.307116,
      "lng": 109.024721,
      "category": "休闲",
      "rating": 4.2,
      "price_per_person": 25.0,
      "address": "浐灞生态区酒十路以东玄武路以北中建尚城3幢10107室",
      "cluster_id": 561,
      "projection_ratio": 0.0,
      "perpendicular_km": 8.8,
      "recommendation_reasons": {
        "structured": "评分4.2 | 人均25元 | 休闲 | 距起点8.8km",
        "user_need": "口碑优秀的高评分选择；位于路线后半段"
      },
      "selected": false
    },
    {
      "id": "187_2391",
      "name": "呷哺呷哺(西安荟聚中心)",
      "lat": 34.172955,
      "lng": 108.901114,
      "category": "餐饮",
      "rating": 4.1,
      "price_per_person": 60.0,
      "address": "子午大道6号西安荟聚中心2层02B013",
      "cluster_id": 187,
      "projection_ratio": 1.0,
      "perpendicular_km": 7.68,
      "recommendation_reasons": {
        "structured": "评分4.1 | 人均60元 | 餐饮 | 距起点10.6km",
        "user_need": "口碑优秀的高评分选择；在您的中等预算范围内；位于路线后半段"
      },
      "selected": false
    },
    {
      "id": "187_2395",
      "name": "九街于记牛肉冒菜(西安荟聚店)",
      "lat": 34.172775,
      "lng": 108.900775,
      "category": "餐饮",
      "rating": 4.1,
      "price_per_person": 43.0,
      "address": "子午大道6号西安荟聚内LG1-LG1B046",
      "cluster_id": 187,
      "projection_ratio": 1.0,
      "perpendicular_km": 7.72,
      "recommendation_reasons": {
        "structured": "评分4.1 | 人均43元 | 餐饮 | 距起点10.6km",
        "user_need": "口碑优秀的高评分选择；在您的中等预算范围内；位于路线后半段"
      },
      "selected": false
    },
    {
      "id": "189_2583",
      "name": "老张家暖锅八大碗(省直机关三爻小区C区店)",
      "lat": 34.179525,
      "lng": 108.938625,
      "category": "餐饮",
      "rating": 4.1,
      "price_per_person": 42.0,
      "address": "长安南路8号",
      "cluster_id": 189,
      "projection_ratio": 1.0,
      "perpendicular_km": 4.9,
      "recommendation_reasons": {
        "structured": "评分4.1 | 人均42元 | 餐饮 | 距起点9.0km",
        "user_need": "口碑优秀的高评分选择；在您的中等预算范围内；位于路线后半段"
      },
      "selected": false
    },
    {
      "id": "189_2657",
      "name": "斯玛特·商业汇(省直机关三爻小区C区店)",
      "lat": 34.179762,
      "lng": 108.938599,
      "category": "购物",
      "rating": 4.1,
      "price_per_person": null,
      "address": "朱雀南路省直机关三爻小区-C区斯玛特商业汇F1",
      "cluster_id": 189,
      "projection_ratio": 1.0,
      "perpendicular_km": 4.88,
      "recommendation_reasons": {
        "structured": "评分4.1 | 购物 | 距起点9.0km",
        "user_need": "口碑优秀的高评分选择；位于路线后半段"
      },
      "selected": false
    },
    {
      "id": "189_2677",
      "name": "陕西融通军民服务社有限公司(省直机关社区超市)",
      "lat": 34.179888,
      "lng": 108.939579,
      "category": "购物",
      "rating": 4.1,
      "price_per_person": null,
      "address": "省直机关三爻小区D区西门北70米",
      "cluster_id": 189,
      "projection_ratio": 1.0,
      "perpendicular_km": 4.83,
      "recommendation_reasons": {
        "structured": "评分4.1 | 购物 | 距起点8.9km",
        "user_need": "口碑优秀的高评分选择；位于路线后半段"
      },
      "selected": false
    },
    {
      "id": "189_2686",
      "name": "姐弟茶业",
      "lat": 34.178999,
      "lng": 108.93942,
      "category": "购物",
      "rating": 4.1,
      "price_per_person": null,
      "address": "朱雀南路与清凉寺交叉口",
      "cluster_id": 189,
      "projection_ratio": 1.0,
      "perpendicular_km": 4.92,
      "recommendation_reasons": {
        "structured": "评分4.1 | 购物 | 距起点9.0km",
        "user_need": "口碑优秀的高评分选择；位于路线后半段"
      },
      "selected": false
    },
    {
      "id": "189_2696",
      "name": "省直机关三爻小区便民市场",
      "lat": 34.177722,
      "lng": 108.939466,
      "category": "购物",
      "rating": 4.1,
      "price_per_person": null,
      "address": "省直机关三爻小区E区西门旁",
      "cluster_id": 189,
      "projection_ratio": 1.0,
      "perpendicular_km": 5.04,
      "recommendation_reasons": {
        "structured": "评分4.1 | 购物 | 距起点9.2km",
        "user_need": "口碑优秀的高评分选择；位于路线后半段"
      },
      "selected": false
    },
    {
      "id": "193_2882",
      "name": "锅圈食汇火锅烧烤食材超市(大华曲江公园世家店)",
      "lat": 34.177744,
      "lng": 108.981214,
      "category": "购物",
      "rating": 4.1,
      "price_per_person": null,
      "address": "曲江新区大华公园学府2-2F205",
      "cluster_id": 193,
      "projection_ratio": 1.0,
      "perpendicular_km": 4.77,
      "recommendation_reasons": {
        "structured": "评分4.1 | 购物 | 距起点9.6km",
        "user_need": "完美匹配您的「景点打卡」需求；完美匹配您的「亲子友好」需求；口碑优秀的高评分选择"
      },
      "selected": false
    },
    {
      "id": "196_3031",
      "name": "中国杜陵秦砖汉瓦博物馆",
      "lat": 34.178369,
      "lng": 109.023483,
      "category": "景点",
      "rating": 4.1,
      "price_per_person": null,
      "address": "雁翔路1号雅森上林苑",
      "cluster_id": 196,
      "projection_ratio": 1.0,
      "perpendicular_km": 7.03,
      "recommendation_reasons": {
        "structured": "评分4.1 | 景点 | 距起点11.4km",
        "user_need": "完美匹配您的「景点打卡」需求；完美匹配您的「亲子友好」需求；口碑优秀的高评分选择"
      },
      "selected": false
    },